{
"type": "FeatureCollection",
"name": "getlostmaps-huts",
"crs": { "type": "name", "properties": { "name": "urn:ogc:def:crs:OGC:1.3:CRS84" } },
"features": [
{ "type": "Feature", "properties": { "name": "Hut: Depot Hut", "desc": "Hut: Depot Hut" }, "geometry": { "type": "Point", "coordinates": [ 138.06006, -30.58337, 0.0 ] } },
{ "type": "Feature", "properties": { "name": "Hut: Corraberra Hut", "desc": "Hut: Corraberra Hut" }, "geometry": { "type": "Point", "coordinates": [ 138.0747, -31.04269, 0.0 ] } },
{ "type": "Feature", "properties": { "name": "Hut: Pug Hill Hut", "desc": "Hut: Pug Hill Hut" }, "geometry": { "type": "Point", "coordinates": [ 138.13317, -30.30497, 0.0 ] } },
{ "type": "Feature", "properties": { "name": "Hut: Scarfes Hut", "desc": "Hut: Scarfes Hut" }, "geometry": { "type": "Point", "coordinates": [ 138.06595, -32.81908, 0.0 ] } },
{ "type": "Feature", "properties": { "name": "Hut: Jackas Hut", "desc": "Hut: Jackas Hut" }, "geometry": { "type": "Point", "coordinates": [ 138.09841, -32.86653, 0.0 ] } },
{ "type": "Feature", "properties": { "name": "Hut: Grays Hut", "desc": "Hut: Grays Hut" }, "geometry": { "type": "Point", "coordinates": [ 138.13757, -32.80058, 0.0 ] } },
{ "type": "Feature", "properties": { "name": "Hut: Yapoona Hut", "desc": "Hut: Yapoona Hut" }, "geometry": { "type": "Point", "coordinates": [ 138.15759, -32.56072, 0.0 ] } },
{ "type": "Feature", "properties": { "name": "Hut: Bumbunga Hut", "desc": "Hut: Bumbunga Hut" }, "geometry": { "type": "Point", "coordinates": [ 138.13006, -33.90378, 0.0 ] } },
{ "type": "Feature", "properties": { "name": "Hut: La Franchi Hut", "desc": "14/06/2019 9:32" }, "geometry": { "type": "Point", "coordinates": [ 144.0519, -37.31534, 408.127 ] } },
{ "type": "Feature", "properties": { "name": "Hut: Darky's Hut", "desc": "31/08/2019 15:24" }, "geometry": { "type": "Point", "coordinates": [ 144.07761, -36.96832, 484.632 ] } },
{ "type": "Feature", "properties": { "name": "Hut: Pine Hut", "desc": "Hut: Pine Hut" }, "geometry": { "type": "Point", "coordinates": [ 138.28921, -32.56372, 0.0 ] } },
{ "type": "Feature", "properties": { "name": "Hut: Muttabee Hut", "desc": "Hut: Muttabee Hut" }, "geometry": { "type": "Point", "coordinates": [ 138.39398, -32.54407, 0.0 ] } },
{ "type": "Feature", "properties": { "name": "Hut: Old Boolooroo Station Hut", "desc": "Hut: Old Boolooroo Station Hut" }, "geometry": { "type": "Point", "coordinates": [ 138.41461, -32.72777, 0.0 ] } },
{ "type": "Feature", "properties": { "name": "Hut: Poles Hut", "desc": "Hut: Poles Hut" }, "geometry": { "type": "Point", "coordinates": [ 138.41366, -32.83613, 0.0 ] } },
{ "type": "Feature", "properties": { "name": "Hut: Mount Samuel Hut", "desc": "Hut: Mount Samuel Hut" }, "geometry": { "type": "Point", "coordinates": [ 138.51423, -31.00044, 0.0 ] } },
{ "type": "Feature", "properties": { "name": "Hut: Truans Hut", "desc": "Hut: Truans Hut" }, "geometry": { "type": "Point", "coordinates": [ 138.5279, -31.64912, 0.0 ] } },
{ "type": "Feature", "properties": { "name": "Hut: Leslie Hut", "desc": "Hut: Leslie Hut" }, "geometry": { "type": "Point", "coordinates": [ 138.56629, -30.15042, 0.0 ] } },
{ "type": "Feature", "properties": { "name": "Hut: Bob Money Hut", "desc": "Hut: Bob Money Hut" }, "geometry": { "type": "Point", "coordinates": [ 138.59721, -30.81077, 0.0 ] } },
{ "type": "Feature", "properties": { "name": "Hut: Yanyanna Hut", "desc": "Hut: Yanyanna Hut" }, "geometry": { "type": "Point", "coordinates": [ 138.59456, -31.40321, 0.0 ] } },
{ "type": "Feature", "properties": { "name": "Hut: Windy Creek Hut", "desc": "Hut: Windy Creek Hut" }, "geometry": { "type": "Point", "coordinates": [ 138.62325, -30.65564, 0.0 ] } },
{ "type": "Feature", "properties": { "name": "Hut: Curnows Hut", "desc": "Hut: Curnows Hut" }, "geometry": { "type": "Point", "coordinates": [ 138.55605, -33.32184, 0.0 ] } },
{ "type": "Feature", "properties": { "name": "Hut: Conservators Hut", "desc": "Hut: Conservators Hut" }, "geometry": { "type": "Point", "coordinates": [ 138.56695, -33.27579, 0.0 ] } },
{ "type": "Feature", "properties": { "name": "Hut: Dennis Hut", "desc": "Hut: Dennis Hut" }, "geometry": { "type": "Point", "coordinates": [ 138.50003, -35.62774, 0.0 ] } },
{ "type": "Feature", "properties": { "name": "Hut: Peenalumba Hut (approx)", "desc": "Hut: Peenalumba Hut (approx)" }, "geometry": { "type": "Point", "coordinates": [ 132.60798, -31.83945, 0.0 ] } },
{ "type": "Feature", "properties": { "name": "Hut: Wongway Hut", "desc": "Hut: Wongway Hut" }, "geometry": { "type": "Point", "coordinates": [ 138.60443, -32.61094, 0.0 ] } },
{ "type": "Feature", "properties": { "name": "Hut:  Middlesight Water (Etalina) Hut", "desc": "Hut:  Middlesight Water (Etalina) Hut" }, "geometry": { "type": "Point", "coordinates": [ 138.63753, -31.34539, 0.0 ] } },
{ "type": "Feature", "properties": { "name": "Hut: Burr Well Huts", "desc": "Hut: Burr Well Huts" }, "geometry": { "type": "Point", "coordinates": [ 138.67943, -30.39139, 0.0 ] } },
{ "type": "Feature", "properties": { "name": "Hut: Dedman Hut", "desc": "Hut: Dedman Hut" }, "geometry": { "type": "Point", "coordinates": [ 138.66533, -31.23768, 0.0 ] } },
{ "type": "Feature", "properties": { "name": "Hut: Pokerby Hut (approx)", "desc": "Hut: Pokerby Hut (approx)" }, "geometry": { "type": "Point", "coordinates": [ 132.67545, -31.84162, 0.0 ] } },
{ "type": "Feature", "properties": { "name": "Hut: Wedina Hut", "desc": "Hut: Wedina Hut" }, "geometry": { "type": "Point", "coordinates": [ 138.74013, -30.35005, 0.0 ] } },
{ "type": "Feature", "properties": { "name": "Hut: Old Glen View Homestead", "desc": "Hut: Old Glen View Homestead" }, "geometry": { "type": "Point", "coordinates": [ 138.72613, -31.14769, 0.0 ] } },
{ "type": "Feature", "properties": { "name": "Hut: Narrina Hut", "desc": "Hut: Narrina Hut" }, "geometry": { "type": "Point", "coordinates": [ 138.75306, -30.89459, 0.0 ] } },
{ "type": "Feature", "properties": { "name": "Hut: Eagles Eyry Hut", "desc": "Hut: Eagles Eyry Hut" }, "geometry": { "type": "Point", "coordinates": [ 138.72648, -33.09229, 0.0 ] } },
{ "type": "Feature", "properties": { "name": "Hut: Drafting Yards Hut", "desc": "Hut: Drafting Yards Hut" }, "geometry": { "type": "Point", "coordinates": [ 138.79681, -31.17689, 0.0 ] } },
{ "type": "Feature", "properties": { "name": "Hut: Muljarrah Hut", "desc": "Hut: Muljarrah Hut" }, "geometry": { "type": "Point", "coordinates": [ 138.74755, -33.32814, 0.0 ] } },
{ "type": "Feature", "properties": { "name": "Hut: Arcoota Hut (approx)", "desc": "Hut: Arcoota Hut (approx)" }, "geometry": { "type": "Point", "coordinates": [ 138.82249, -31.90962, 0.0 ] } },
{ "type": "Feature", "properties": { "name": "Hut: Minvalara Hut", "desc": "Hut: Minvalara Hut" }, "geometry": { "type": "Point", "coordinates": [ 138.8127, -32.81352, 0.0 ] } },
{ "type": "Feature", "properties": { "name": "Hut: Douglas Hut", "desc": "Hut: Douglas Hut" }, "geometry": { "type": "Point", "coordinates": [ 138.92373, -30.26444, 0.0 ] } },
{ "type": "Feature", "properties": { "name": "Hut: Golden Gully Hut", "desc": "Hut: Golden Gully Hut" }, "geometry": { "type": "Point", "coordinates": [ 138.88447, -32.83882, 0.0 ] } },
{ "type": "Feature", "properties": { "name": "Hut: Little Mirka", "desc": "Hut: Little Mirka" }, "geometry": { "type": "Point", "coordinates": [ 138.89828, -32.81603, 0.0 ] } },
{ "type": "Feature", "properties": { "name": "Hut: Boundary Hut", "desc": "Hut: Boundary Hut" }, "geometry": { "type": "Point", "coordinates": [ 139.03218, -29.72008, 0.0 ] } },
{ "type": "Feature", "properties": { "name": "Hut: Rossiters Hut (Approx)", "desc": "OSM" }, "geometry": { "type": "Point", "coordinates": [ 138.99593, -34.59119, 0.0 ] } },
{ "type": "Feature", "properties": { "name": "Hut: Junction Hut", "desc": "Hut: Junction Hut" }, "geometry": { "type": "Point", "coordinates": [ 139.10958, -29.45348, 0.0 ] } },
{ "type": "Feature", "properties": { "name": "Hut: Cotteroo Hut", "desc": "Hut: Cotteroo Hut" }, "geometry": { "type": "Point", "coordinates": [ 139.00933, -35.2063, 0.0 ] } },
{ "type": "Feature", "properties": { "name": "Hut: Calalie Hut", "desc": "Hut: Calalie Hut" }, "geometry": { "type": "Point", "coordinates": [ 139.08533, -32.38473, 0.0 ] } },
{ "type": "Feature", "properties": { "name": "Hut: Grindell Hut", "desc": "Hut: Grindell Hut" }, "geometry": { "type": "Point", "coordinates": [ 139.21335, -30.47702, 0.0 ] } },
{ "type": "Feature", "properties": { "name": "Hut: Limestone Hut", "desc": "Hut: Limestone Hut" }, "geometry": { "type": "Point", "coordinates": [ 139.23163, -31.32845, 0.0 ] } },
{ "type": "Feature", "properties": { "name": "Hut: Artipena Hut", "desc": "Hut: Artipena Hut" }, "geometry": { "type": "Point", "coordinates": [ 139.23888, -31.51202, 0.0 ] } },
{ "type": "Feature", "properties": { "name": "Hut: Drennan Hut", "desc": "Hut: Drennan Hut" }, "geometry": { "type": "Point", "coordinates": [ 139.27357, -31.66743, 0.0 ] } },
{ "type": "Feature", "properties": { "name": "Hut: Balcanoona Hut", "desc": "Hut: Balcanoona Hut" }, "geometry": { "type": "Point", "coordinates": [ 139.30421, -30.53334, 0.0 ] } },
{ "type": "Feature", "properties": { "name": "Hut: Myn-Un-Finka Hut", "desc": "Hut: Myn-Un-Finka Hut" }, "geometry": { "type": "Point", "coordinates": [ 139.21413, -35.72133, 0.0 ] } },
{ "type": "Feature", "properties": { "name": "Hut: Jones Hut", "desc": "Hut: Jones Hut" }, "geometry": { "type": "Point", "coordinates": [ 139.26596, -33.52937, 0.0 ] } },
{ "type": "Feature", "properties": { "name": "Hut: Old Wabricoola Hut", "desc": "Hut: Old Wabricoola Hut" }, "geometry": { "type": "Point", "coordinates": [ 139.32584, -32.46308, 0.0 ] } },
{ "type": "Feature", "properties": { "name": "Hut: Simons (Symon) Well Hut", "desc": "Hut: Simons (Symon) Well Hut" }, "geometry": { "type": "Point", "coordinates": [ 139.42345, -32.33859, 0.0 ] } },
{ "type": "Feature", "properties": { "name": "Hut: Gunya Hut (Approx)", "desc": "OSM" }, "geometry": { "type": "Point", "coordinates": [ 151.48001, -32.14775, 0.0 ] } },
{ "type": "Feature", "properties": { "name": "Hut: Martin Hut", "desc": "Hut: Martin Hut" }, "geometry": { "type": "Point", "coordinates": [ 139.47601, -32.79072, 0.0 ] } },
{ "type": "Feature", "properties": { "name": "Hut: Red Dog Hut", "desc": "22/05/2021 12:18" }, "geometry": { "type": "Point", "coordinates": [ 145.38137, -37.85712, 441.96 ] } },
{ "type": "Feature", "properties": { "name": "Hut: W Mills Hut", "desc": "Hut: W Mills Hut" }, "geometry": { "type": "Point", "coordinates": [ 139.45523, -35.25964, 0.0 ] } },
{ "type": "Feature", "properties": { "name": "Hut: Hoads Hut", "desc": "Hut: Hoads Hut" }, "geometry": { "type": "Point", "coordinates": [ 139.45541, -35.25838, 0.0 ] } },
{ "type": "Feature", "properties": { "name": "Hut: Rose Gums Wilderness Retreat (Approx)", "desc": "OSM" }, "geometry": { "type": "Point", "coordinates": [ 145.69354, -17.3255, 0.0 ] } },
{ "type": "Feature", "properties": { "name": "Hut: John Brown Hut (approx)", "desc": "Hut: John Brown Hut (approx)" }, "geometry": { "type": "Point", "coordinates": [ 139.61425, -30.35097, 0.0 ] } },
{ "type": "Feature", "properties": { "name": "Hut: Pepegoona Hut", "desc": "Hut: Pepegoona Hut" }, "geometry": { "type": "Point", "coordinates": [ 139.6699, -30.13255, 0.0 ] } },
{ "type": "Feature", "properties": { "name": "Hut: Amphitheatre Hut", "desc": "Hut: Amphitheatre Hut" }, "geometry": { "type": "Point", "coordinates": [ 139.69473, -31.2247, 0.0 ] } },
{ "type": "Feature", "properties": { "name": "Hut: Scout Dom Dom (approx)", "desc": "Hut: Scout Dom Dom" }, "geometry": { "type": "Point", "coordinates": [ 145.67, -37.60103, 0.0 ] } },
{ "type": "Feature", "properties": { "name": "Hut: Box Hut", "desc": "Hut: Box Hut" }, "geometry": { "type": "Point", "coordinates": [ 139.82491, -30.01759, 0.0 ] } },
{ "type": "Feature", "properties": { "name": "Hut: Melbourne Water Huts (1930s)", "desc": "5/04/2021 9:53" }, "geometry": { "type": "Point", "coordinates": [ 145.75001, -37.71133, 315.468 ] } },
{ "type": "Feature", "properties": { "name": "Hut: Lake Ball Hut", "desc": "Hut: Lake Ball Hut" }, "geometry": { "type": "Point", "coordinates": [ 139.85592, -30.30852, 0.0 ] } },
{ "type": "Feature", "properties": { "name": "Hut: Hideaway (Bend) Hut", "desc": "Hut: Hideaway (Bend) Hut" }, "geometry": { "type": "Point", "coordinates": [ 139.88241, -33.57747, 0.0 ] } },
{ "type": "Feature", "properties": { "name": "Hut: Johnstons Hut", "desc": "Hut: Johnstons Hut" }, "geometry": { "type": "Point", "coordinates": [ 139.87971, -33.87514, 0.0 ] } },
{ "type": "Feature", "properties": { "name": "Hut: Keppels Hut (1983-2009  2010-)", "desc": "Hut: Keppels OK 2018 water toilet park40away" }, "geometry": { "type": "Point", "coordinates": [ 145.85158, -37.46064, 0.0 ] } },
{ "type": "Feature", "properties": { "name": "Hut: Billeroo Hut", "desc": "Hut: Billeroo Hut" }, "geometry": { "type": "Point", "coordinates": [ 139.92571, -31.90442, 0.0 ] } },
{ "type": "Feature", "properties": { "name": "Hut: Mindamereeka Hut", "desc": "Hut: Mindamereeka Hut" }, "geometry": { "type": "Point", "coordinates": [ 139.95968, -32.06207, 0.0 ] } },
{ "type": "Feature", "properties": { "name": "Hut: Whiskey Creek New Hut", "desc": "15/02/2018 12:44" }, "geometry": { "type": "Point", "coordinates": [ 145.89331, -37.40947, 0.0 ] } },
{ "type": "Feature", "properties": { "name": "Hut: Waterfall Hut", "desc": "Hut: Waterfall Hut" }, "geometry": { "type": "Point", "coordinates": [ 139.97908, -32.15975, 0.0 ] } },
{ "type": "Feature", "properties": { "name": "Hut: Whey Whey Hut", "desc": "Hut: Whey Whey Hut" }, "geometry": { "type": "Point", "coordinates": [ 140.01063, -32.12618, 0.0 ] } },
{ "type": "Feature", "properties": { "name": "Hut: Wilsons Creek Hut", "desc": "Hut: Wilsons Creek" }, "geometry": { "type": "Point", "coordinates": [ 145.98269, -37.27115, 0.0 ] } },
{ "type": "Feature", "properties": { "name": "Hut: Elmore Hut", "desc": "Hut: Elmore Hut" }, "geometry": { "type": "Point", "coordinates": [ 140.04705, -33.10972, 0.0 ] } },
{ "type": "Feature", "properties": { "name": "Hut: Antro Hut", "desc": "Hut: Antro Hut" }, "geometry": { "type": "Point", "coordinates": [ 140.05741, -32.04507, 0.0 ] } },
{ "type": "Feature", "properties": { "name": "Hut: Walparuta Hut", "desc": "Hut: Walparuta Hut" }, "geometry": { "type": "Point", "coordinates": [ 140.05802, -32.2016, 0.0 ] } },
{ "type": "Feature", "properties": { "name": "Hut: 15 Mile Hut", "desc": "16/02/2018 11:02" }, "geometry": { "type": "Point", "coordinates": [ 146.00687, -37.45323, 545.897 ] } },
{ "type": "Feature", "properties": { "name": "Hut: Bald Hill Hut", "desc": "Hut: Bald Hill Hut" }, "geometry": { "type": "Point", "coordinates": [ 140.02638, -36.5062, 0.0 ] } },
{ "type": "Feature", "properties": { "name": "Hut: Willows Hut", "desc": "Hut: Willows Hut" }, "geometry": { "type": "Point", "coordinates": [ 140.12408, -32.02295, 0.0 ] } },
{ "type": "Feature", "properties": { "name": "Hut: Rabbit Patch Hut (2010s)", "desc": "Camp nice large water shelter" }, "geometry": { "type": "Point", "coordinates": [ 146.06626, -37.80557, 0.0 ] } },
{ "type": "Feature", "properties": { "name": "Hut: Birds Nest Hut (Approx)", "desc": "OSM" }, "geometry": { "type": "Point", "coordinates": [ 152.17766, -31.01577, 0.0 ] } },
{ "type": "Feature", "properties": { "name": "Hut: Hunter's Lodge Hut (soft hut)", "desc": "20/09/2019 14:25" }, "geometry": { "type": "Point", "coordinates": [ 146.12359, -37.89193, 548.945 ] } },
{ "type": "Feature", "properties": { "name": "Hut: Mt Terrible Hut (1962- 2016-)", "desc": "Hut: Mt Terrible Hut (1962- 2016-)" }, "geometry": { "type": "Point", "coordinates": [ 146.14011, -37.39483, 0.0 ] } },
{ "type": "Feature", "properties": { "name": "Hut: Ryan's Spur Hut (1970s)", "desc": "Hut: Ryan's Spur" }, "geometry": { "type": "Point", "coordinates": [ 146.14195, -37.49987, 0.0 ] } },
{ "type": "Feature", "properties": { "name": "Hut: Gingerbread Hut (Approx)", "desc": "OSM" }, "geometry": { "type": "Point", "coordinates": [ 146.0998, -42.12472, 0.0 ] } },
{ "type": "Feature", "properties": { "name": "Hut: Anabama East Hut", "desc": "Hut: Anabama East Hut" }, "geometry": { "type": "Point", "coordinates": [ 140.23288, -32.77847, 0.0 ] } },
{ "type": "Feature", "properties": { "name": "Hut: Loch Fyne Mine Hut", "desc": "15/09/2020 19:53" }, "geometry": { "type": "Point", "coordinates": [ 146.2314, -37.61372, 0.0 ] } },
{ "type": "Feature", "properties": { "name": "Hut: Cat and Dog Hut", "desc": "Hut: Cat and Dog Hut" }, "geometry": { "type": "Point", "coordinates": [ 140.30053, -33.4284, 0.0 ] } },
{ "type": "Feature", "properties": { "name": "Hut: Du Nord (Approx)", "desc": "OSM" }, "geometry": { "type": "Point", "coordinates": [ 146.26648, -37.84065, 0.0 ] } },
{ "type": "Feature", "properties": { "name": "Hut: Glotz Hut", "desc": "Hut: Glotz" }, "geometry": { "type": "Point", "coordinates": [ 146.27568, -37.57983, 0.0 ] } },
{ "type": "Feature", "properties": { "name": "Hut: Stockyard Creek (Blowfly) Hut (1970s)", "desc": "29/04/2021 11:56" }, "geometry": { "type": "Point", "coordinates": [ 146.28317, -36.96044, 710.489 ] } },
{ "type": "Feature", "properties": { "name": "Hut: Cinnabar Hut (approx) (1920s/2009)", "desc": "Hut: Cinnabar Hut (approx)" }, "geometry": { "type": "Point", "coordinates": [ 146.30463, -37.32063, 0.0 ] } },
{ "type": "Feature", "properties": { "name": "Hut: (Rock shelter)", "desc": "12/11/2012 16:04" }, "geometry": { "type": "Point", "coordinates": [ 146.30173, -37.83609, 0.0 ] } },
{ "type": "Feature", "properties": { "name": "Hut: Staggs (Jans) Hut (1930s)", "desc": "Jans Hut" }, "geometry": { "type": "Point", "coordinates": [ 146.30908, -37.80445, 0.0 ] } },
{ "type": "Feature", "properties": { "name": "Hut: Sambar Lodge Hut", "desc": "mine adit beside hut" }, "geometry": { "type": "Point", "coordinates": [ 146.31803, -37.64633, 641.909 ] } },
{ "type": "Feature", "properties": { "name": "Hut: Fry's Hut (c1940)", "desc": "Hut: Fry's Hut" }, "geometry": { "type": "Point", "coordinates": [ 146.32987, -37.19587, 0.0 ] } },
{ "type": "Feature", "properties": { "name": "Hut: Frascas Dam Hut (approx)", "desc": "1/02/2022 15:23" }, "geometry": { "type": "Point", "coordinates": [ 146.33654, -36.77207, 0.0 ] } },
{ "type": "Feature", "properties": { "name": "Hut: Shelter", "desc": "Hut: Shelter" }, "geometry": { "type": "Point", "coordinates": [ 146.33211, -37.84059, 0.0 ] } },
{ "type": "Feature", "properties": { "name": "Hut: (approx)", "desc": "Hut: (approx)" }, "geometry": { "type": "Point", "coordinates": [ 146.34075, -37.511, 0.0 ] } },
{ "type": "Feature", "properties": { "name": "Hut: Blackbird (approx)", "desc": "9/05/2021 13:47" }, "geometry": { "type": "Point", "coordinates": [ 146.34468, -37.19531, 0.0 ] } },
{ "type": "Feature", "properties": { "name": "Hut: River Inn Hut", "desc": "10/11/2017 12:29" }, "geometry": { "type": "Point", "coordinates": [ 146.34841, -37.32983, 651.967 ] } },
{ "type": "Feature", "properties": { "name": "Hut: The Botany Hut", "desc": "Hut: The Botany Hut" }, "geometry": { "type": "Point", "coordinates": [ 140.36018, -35.94907, 0.0 ] } },
{ "type": "Feature", "properties": { "name": "Hut: NBW Hut", "desc": "Hut: NBW" }, "geometry": { "type": "Point", "coordinates": [ 146.35346, -37.88123, 0.0 ] } },
{ "type": "Feature", "properties": { "name": "Hut: Bakers Bend Shelter", "desc": "10/11/2017 12:46" }, "geometry": { "type": "Point", "coordinates": [ 146.36068, -37.33946, 651.967 ] } },
{ "type": "Feature", "properties": { "name": "Hut: Noonans Hut", "desc": "This former fisherman 's hut is held under license as a permissive occupancy under the Lands Act 195" }, "geometry": { "type": "Point", "coordinates": [ 146.36121, -37.18711, 0.0 ] } },
{ "type": "Feature", "properties": { "name": "Hut: Gardners (4 Mile) Hut (1951)", "desc": "Hut: Gardners H" }, "geometry": { "type": "Point", "coordinates": [ 146.378, -37.19223, 0.0 ] } },
{ "type": "Feature", "properties": { "name": "Hut: Evans Creek Hut (1965/2005)", "desc": "Hut: Evans Creek" }, "geometry": { "type": "Point", "coordinates": [ 146.37887, -37.00614, 0.0 ] } },
{ "type": "Feature", "properties": { "name": "Hut: Silverwater Hut", "desc": "Silverwater Hut RUIN?" }, "geometry": { "type": "Point", "coordinates": [ 146.38058, -37.35745, 0.0 ] } },
{ "type": "Feature", "properties": { "name": "Hut: Bobs Short Spur", "desc": "structure?" }, "geometry": { "type": "Point", "coordinates": [ 146.38041, -37.6258, 0.0 ] } },
{ "type": "Feature", "properties": { "name": "Hut: (approx)", "desc": "OSM" }, "geometry": { "type": "Point", "coordinates": [ 146.38245, -37.74629, 0.0 ] } },
{ "type": "Feature", "properties": { "name": "Hut: Crows Hut", "desc": "8/11/2017 14:13" }, "geometry": { "type": "Point", "coordinates": [ 146.38613, -37.49262, 1157.021 ] } },
{ "type": "Feature", "properties": { "name": "Hut: Rumpff New Hut", "desc": "HTU: very Steep rough track up to it" }, "geometry": { "type": "Point", "coordinates": [ 146.40329, -37.43257, 0.0 ] } },
{ "type": "Feature", "properties": { "name": "Hut: Junction Hut", "desc": "Hut: Junction" }, "geometry": { "type": "Point", "coordinates": [ 146.40188, -37.75807, 0.0 ] } },
{ "type": "Feature", "properties": { "name": "Hut: Tomahawk Hut (1927/2007)", "desc": "Tomahawk Hut" }, "geometry": { "type": "Point", "coordinates": [ 146.41133, -37.04047, 0.0 ] } },
{ "type": "Feature", "properties": { "name": "Hut: Mt No3 Refuge New Hut (2008)", "desc": "Hut: Mt No3 Refuge New" }, "geometry": { "type": "Point", "coordinates": [ 146.41668, -37.0764, 0.0 ] } },
{ "type": "Feature", "properties": { "name": "Hut: Jorgensens Flat Hut", "desc": "Jorgensens Flat Hut" }, "geometry": { "type": "Point", "coordinates": [ 146.41285, -37.7488, 0.0 ] } },
{ "type": "Feature", "properties": { "name": "Hut: Hut No. 5 (Approx)", "desc": "OSM" }, "geometry": { "type": "Point", "coordinates": [ 146.37938, -41.88993, 0.0 ] } },
{ "type": "Feature", "properties": { "name": "Hut: Dicks Hut", "desc": "Hut: Dicks Hut" }, "geometry": { "type": "Point", "coordinates": [ 140.4549, -33.17596, 0.0 ] } },
{ "type": "Feature", "properties": { "name": "Hut: Haberles Hut (Approx)", "desc": "OSM" }, "geometry": { "type": "Point", "coordinates": [ 146.39153, -41.63819, 0.0 ] } },
{ "type": "Feature", "properties": { "name": "Hut: Boggy Creek Hut", "desc": "Hut: Boggy Creek Hut" }, "geometry": { "type": "Point", "coordinates": [ 146.43395, -37.14159, 0.0 ] } },
{ "type": "Feature", "properties": { "name": "Hut: Top Crossing Hut (1957)", "desc": "Hut: Top Crossing" }, "geometry": { "type": "Point", "coordinates": [ 146.44161, -36.96403, 0.0 ] } },
{ "type": "Feature", "properties": { "name": "Hut: N18 Hut (1994)", "desc": "8/11/17 14:40 new 2017" }, "geometry": { "type": "Point", "coordinates": [ 146.43781, -37.52492, 1125.017 ] } },
{ "type": "Feature", "properties": { "name": "Hut: 4x4 Earth Hut (Approx)", "desc": "OSM" }, "geometry": { "type": "Point", "coordinates": [ 146.44248, -37.74832, 0.0 ] } },
{ "type": "Feature", "properties": { "name": "Hut: Upper Jamieson Hut (1938)", "desc": "Hut: Upper Jamieson" }, "geometry": { "type": "Point", "coordinates": [ 146.44758, -37.25762, 0.0 ] } },
{ "type": "Feature", "properties": { "name": "Hut: Goonans Hut", "desc": "Hut: Goonans" }, "geometry": { "type": "Point", "coordinates": [ 146.45523, -37.74922, 0.0 ] } },
{ "type": "Feature", "properties": { "name": "Hut: Razorback (Purcell's) Hut", "desc": "Hut: Razorback (Purcell's) Huts (1953/83)" }, "geometry": { "type": "Point", "coordinates": [ 146.46396, -37.10394, 0.0 ] } },
{ "type": "Feature", "properties": { "name": "Hut: Hut Number 4 (Approx)", "desc": "OSM" }, "geometry": { "type": "Point", "coordinates": [ 146.43253, -41.79556, 0.0 ] } },
{ "type": "Feature", "properties": { "name": "Hut: Marshall Hut", "desc": "Hut: Marshall Hut" }, "geometry": { "type": "Point", "coordinates": [ 140.48828, -34.38193, 0.0 ] } },
{ "type": "Feature", "properties": { "name": "Hut: Ironstone Hut (Approx)", "desc": "OSM" }, "geometry": { "type": "Point", "coordinates": [ 146.4371, -41.7268, 0.0 ] } },
{ "type": "Feature", "properties": { "name": "Hut: King Saddle Hut", "desc": "Hut: King Saddl" }, "geometry": { "type": "Point", "coordinates": [ 146.475, -37.10567, 0.0 ] } },
{ "type": "Feature", "properties": { "name": "Hut: Purcell's Pannican Hut (1957/91)", "desc": "Hut: Pannican Creek (Purcell's) Hut (1957/91)" }, "geometry": { "type": "Point", "coordinates": [ 146.47565, -37.0803, 0.0 ] } },
{ "type": "Feature", "properties": { "name": "Hut: Richies Hut (1947-2007/2010-)", "desc": "9/05/2021 12:06" }, "geometry": { "type": "Point", "coordinates": [ 146.47626, -37.1954, 0.0 ] } },
{ "type": "Feature", "properties": { "name": "Hut: Lady lake Hut (Approx)", "desc": "OSM" }, "geometry": { "type": "Point", "coordinates": [ 146.44576, -41.67629, 0.0 ] } },
{ "type": "Feature", "properties": { "name": "Hut: Howqua Gap Hut (1960s)", "desc": "Hut: Howqua Gap" }, "geometry": { "type": "Point", "coordinates": [ 146.49053, -37.14448, 0.0 ] } },
{ "type": "Feature", "properties": { "name": "Hut: Mountain Ash Top Hut (Chesters)", "desc": "27/05/2021 11:26" }, "geometry": { "type": "Point", "coordinates": [ 146.48985, -37.37243, 1285.342 ] } },
{ "type": "Feature", "properties": { "name": "Hut: Bluff Spur Memorial Hut (1987)", "desc": "Hut: Bluff Spur Memorial Hut" }, "geometry": { "type": "Point", "coordinates": [ 146.493, -37.12693, 0.0 ] } },
{ "type": "Feature", "properties": { "name": "Hut: Lake Ironstone Track (approximate) (Approx)", "desc": "OSM" }, "geometry": { "type": "Point", "coordinates": [ 146.46448, -41.70205, 0.0 ] } },
{ "type": "Feature", "properties": { "name": "Hut: Johnson Hut", "desc": "5/07/2019 16:05" }, "geometry": { "type": "Point", "coordinates": [ 146.4968, -37.64703, 1277.417 ] } },
{ "type": "Feature", "properties": { "name": "Hut: Geelong Grammar School Hut (c1965)", "desc": "Hut: Geelong Grammar School" }, "geometry": { "type": "Point", "coordinates": [ 146.50098, -37.1241, 0.0 ] } },
{ "type": "Feature", "properties": { "name": "Hut: Rock Hut", "desc": "Hut: Rock Hut" }, "geometry": { "type": "Point", "coordinates": [ 140.52835, -32.51008, 0.0 ] } },
{ "type": "Feature", "properties": { "name": "Hut: Lloyds Hut", "desc": "11/10/2012 15:47" }, "geometry": { "type": "Point", "coordinates": [ 146.50116, -37.75409, 0.0 ] } },
{ "type": "Feature", "properties": { "name": "Hut: Store Point Hut", "desc": "Hut: Lloyds" }, "geometry": { "type": "Point", "coordinates": [ 146.50268, -37.75582, 0.0 ] } },
{ "type": "Feature", "properties": { "name": "Hut: Howfield Refuge (walk in)", "desc": "10/01/2021 12:48" }, "geometry": { "type": "Point", "coordinates": [ 146.51001, -37.18123, 727.558 ] } },
{ "type": "Feature", "properties": { "name": "Hut: Pikes Flat Hut (1970s)", "desc": "Hut: Pikes Flat" }, "geometry": { "type": "Point", "coordinates": [ 146.51238, -37.1806, 0.0 ] } },
{ "type": "Feature", "properties": { "name": "Hut: Bluff Hut (1955/1982/2008)", "desc": "Hut: Bluff Hut" }, "geometry": { "type": "Point", "coordinates": [ 146.52393, -37.21609, 0.0 ] } },
{ "type": "Feature", "properties": { "name": "Hut: Craigs Hut (1981/1989)", "desc": "Hut: Craigs" }, "geometry": { "type": "Point", "coordinates": [ 146.5328, -37.10829, 0.0 ] } },
{ "type": "Feature", "properties": { "name": "Hut: Sampson Hut", "desc": "Hut: Sampson Hut" }, "geometry": { "type": "Point", "coordinates": [ 140.56376, -33.22545, 0.0 ] } },
{ "type": "Feature", "properties": { "name": "Hut: Bindaree Hut (1920s)", "desc": "Hut: Bindaree Hut" }, "geometry": { "type": "Point", "coordinates": [ 146.54342, -37.16713, 0.0 ] } },
{ "type": "Feature", "properties": { "name": "Hut: Allisons Hut Number 1 (Approx)", "desc": "OSM" }, "geometry": { "type": "Point", "coordinates": [ 146.52678, -41.82734, 0.0 ] } },
{ "type": "Feature", "properties": { "name": "Hut: (approx)", "desc": "OSM" }, "geometry": { "type": "Point", "coordinates": [ 146.55823, -37.76453, 0.0 ] } },
{ "type": "Feature", "properties": { "name": "Hut: King River Hut (1950s)", "desc": "Hut: King River" }, "geometry": { "type": "Point", "coordinates": [ 146.5721, -37.08825, 0.0 ] } },
{ "type": "Feature", "properties": { "name": "Hut: Lovick's Hut (1960)", "desc": "Hut: Lovick's Hut" }, "geometry": { "type": "Point", "coordinates": [ 146.57693, -37.20698, 0.0 ] } },
{ "type": "Feature", "properties": { "name": "Hut: Whichelby Hut (approx)", "desc": "Hut: Whichelby Hut (approx)" }, "geometry": { "type": "Point", "coordinates": [ 134.61686, -32.84414, 0.0 ] } },
{ "type": "Feature", "properties": { "name": "Hut: Dangdongadale (Macready's) Hut (1963) (approx)", "desc": "22/12/2015 9:25" }, "geometry": { "type": "Point", "coordinates": [ 146.60291, -36.89169, 0.0 ] } },
{ "type": "Feature", "properties": { "name": "Hut: Lake Cobbler shelter (1988)", "desc": "Hut: Cobbler Lake Hut" }, "geometry": { "type": "Point", "coordinates": [ 146.62628, -37.04959, 0.0 ] } },
{ "type": "Feature", "properties": { "name": "Hut: Morning Glory Hut (rebuilt 2014)", "desc": "burned 2013  rebuilt" }, "geometry": { "type": "Point", "coordinates": [ 146.62448, -37.73534, 0.0 ] } },
{ "type": "Feature", "properties": { "name": "Hut: (Rock shelter)", "desc": "Hut: ROCK SHELTER" }, "geometry": { "type": "Point", "coordinates": [ 146.63518, -37.45977, 0.0 ] } },
{ "type": "Feature", "properties": { "name": "Hut: Vallejo Gantner Hut (1971)", "desc": "Hut: Vallejo Gantner Hut" }, "geometry": { "type": "Point", "coordinates": [ 146.67081, -37.17249, 0.0 ] } },
{ "type": "Feature", "properties": { "name": "Hut: Howitt Hut (1930s)", "desc": "Hut: Howitt" }, "geometry": { "type": "Point", "coordinates": [ 146.69806, -37.23167, 0.0 ] } },
{ "type": "Feature", "properties": { "name": "Hut: McMichaels Hut (1970s)", "desc": "Hut: McMichaels" }, "geometry": { "type": "Point", "coordinates": [ 146.75196, -37.42245, 0.0 ] } },
{ "type": "Feature", "properties": { "name": "Hut: Kellys (Holmes Plain) Hut (1934)", "desc": "Hut: Kellys Snowy Plain" }, "geometry": { "type": "Point", "coordinates": [ 146.7523, -37.41203, 0.0 ] } },
{ "type": "Feature", "properties": { "name": "Hut: Yallum Park Homestead", "desc": "Hut: Yallum Park Homestead" }, "geometry": { "type": "Point", "coordinates": [ 140.7521, -37.39122, 0.0 ] } },
{ "type": "Feature", "properties": { "name": "Hut: Guys Hut (1940)", "desc": "Hut: Guys" }, "geometry": { "type": "Point", "coordinates": [ 146.75416, -37.28885, 0.0 ] } },
{ "type": "Feature", "properties": { "name": "Hut: Coodley Hut (approx)", "desc": "Hut: Coodley Hut (approx)" }, "geometry": { "type": "Point", "coordinates": [ 134.78256, -33.28389, 0.0 ] } },
{ "type": "Feature", "properties": { "name": "Hut: Elbow Camp", "desc": "Hut: Elbow Camp" }, "geometry": { "type": "Point", "coordinates": [ 146.79146, -36.3913, 0.0 ] } },
{ "type": "Feature", "properties": { "name": "Hut: Colcha Hut", "desc": "Hut: Colcha Hut" }, "geometry": { "type": "Point", "coordinates": [ 140.81165, -34.269, 0.0 ] } },
{ "type": "Feature", "properties": { "name": "Hut: Yackandandah Underground Hut (approx)", "desc": "Yackandandah Hut" }, "geometry": { "type": "Point", "coordinates": [ 146.81503, -36.33572, 0.0 ] } },
{ "type": "Feature", "properties": { "name": "Hut: Postmark Hut", "desc": "Hut: Postmark Hut" }, "geometry": { "type": "Point", "coordinates": [ 140.83025, -33.07042, 0.0 ] } },
{ "type": "Feature", "properties": { "name": "Hut: Millers Hut (1916/1987)", "desc": "Hut: Millers" }, "geometry": { "type": "Point", "coordinates": [ 146.82213, -37.53996, 0.0 ] } },
{ "type": "Feature", "properties": { "name": "Hut: Riley Creek Hut (1947-2001 2002-)", "desc": "Hut: Riley Creek Hut (1947-2001 2002-)" }, "geometry": { "type": "Point", "coordinates": [ 146.82821, -37.10603, 0.0 ] } },
{ "type": "Feature", "properties": { "name": "Hut: Wonnangatta Station Hut (1957)", "desc": "Hut: Wonnangatta Station" }, "geometry": { "type": "Point", "coordinates": [ 146.83136, -37.20803, 0.0 ] } },
{ "type": "Feature", "properties": { "name": "Hut: Dunsmuir Hut (1962- barely standing 2021)", "desc": "15/04/2021 12:10" }, "geometry": { "type": "Point", "coordinates": [ 146.83923, -37.48667, 1481.938000000000102 ] } },
{ "type": "Feature", "properties": { "name": "Hut: Pine Hut", "desc": "Hut: Pine Hut" }, "geometry": { "type": "Point", "coordinates": [ 140.88803, -36.54372, 0.0 ] } },
{ "type": "Feature", "properties": { "name": "Hut: Birthday Hut", "desc": "Hut: Birthday Hut" }, "geometry": { "type": "Point", "coordinates": [ 140.89926, -33.33335, 0.0 ] } },
{ "type": "Feature", "properties": { "name": "Hut: Humffray River Shelter", "desc": "Hut: Humffray River Shelter" }, "geometry": { "type": "Point", "coordinates": [ 146.90515, -37.20593, 0.0 ] } },
{ "type": "Feature", "properties": { "name": "Hut: Moroka Hut (1946)", "desc": "Hut: Moroka" }, "geometry": { "type": "Point", "coordinates": [ 146.93193, -37.51032, 0.0 ] } },
{ "type": "Feature", "properties": { "name": "Hut: South East Hut", "desc": "Hut: South East Hut" }, "geometry": { "type": "Point", "coordinates": [ 140.96543, -32.7905, 0.0 ] } },
{ "type": "Feature", "properties": { "name": "Hut: Horseyard Flat Hut (1970s)", "desc": "15/04/2021 13:09" }, "geometry": { "type": "Point", "coordinates": [ 146.98333, -37.4856, 1016.508 ] } },
{ "type": "Feature", "properties": { "name": "Hut: Dungeys (harry Smiths) Hut", "desc": "on private property but can visit" }, "geometry": { "type": "Point", "coordinates": [ 147.00933, -37.36752, 0.0 ] } },
{ "type": "Feature", "properties": { "name": "Hut: Okeltabie Homestead", "desc": "Hut: Okeltabie Homestead" }, "geometry": { "type": "Point", "coordinates": [ 135.01353, -33.32169, 0.0 ] } },
{ "type": "Feature", "properties": { "name": "Hut: New Place Hut", "desc": "Hut: New Place" }, "geometry": { "type": "Point", "coordinates": [ 147.02238, -37.6148, 0.0 ] } },
{ "type": "Feature", "properties": { "name": "Hut: (approx)", "desc": "OSM" }, "geometry": { "type": "Point", "coordinates": [ 153.04758, -25.31137, 0.0 ] } },
{ "type": "Feature", "properties": { "name": "Hut: Biplane Mine Hut (1994) (approx)", "desc": "Hut: Biplane Mine Hut (1994) (approx)" }, "geometry": { "type": "Point", "coordinates": [ 147.06625, -36.96959, 0.0 ] } },
{ "type": "Feature", "properties": { "name": "Hut: Culhanes Forest commission Hut (c1960) (approx)", "desc": "Hut: Culhanes Forest commission Hut (c1960) (approx)" }, "geometry": { "type": "Point", "coordinates": [ 147.07096, -37.35379, 0.0 ] } },
{ "type": "Feature", "properties": { "name": "Hut: Shearers Quarters (1960/1977) (Paid accom)", "desc": "10/10/2020 19:23" }, "geometry": { "type": "Point", "coordinates": [ 141.07073, -34.56385, 0.0 ] } },
{ "type": "Feature", "properties": { "name": "Hut: Wangaratta Ski Club (Private)", "desc": "house?" }, "geometry": { "type": "Point", "coordinates": [ 147.08311, -37.00787, 0.0 ] } },
{ "type": "Feature", "properties": { "name": "Hut: Blairs Top Hut (1943-almost ruin)", "desc": "ruin?" }, "geometry": { "type": "Point", "coordinates": [ 147.11123, -36.79063, 0.0 ] } },
{ "type": "Feature", "properties": { "name": "Hut: Blowhard Hut (1960s+2002)", "desc": "Hut: Blowhard Hut. ok 2022." }, "geometry": { "type": "Point", "coordinates": [ 147.11296, -36.99059, 0.0 ] } },
{ "type": "Feature", "properties": { "name": "Hut: Diamantina Hut (1967)", "desc": "Hut: Diamantina" }, "geometry": { "type": "Point", "coordinates": [ 147.12182, -36.97652, 0.0 ] } },
{ "type": "Feature", "properties": { "name": "Hut: Federation Hut (1968-2003ã rebuilt)", "desc": "Hut: Federation Link Road BURNT?" }, "geometry": { "type": "Point", "coordinates": [ 147.12255, -36.9015, 0.0 ] } },
{ "type": "Feature", "properties": { "name": "Hut: MUMC Russell Judge Memorial Hut (1966)", "desc": "Hut: MUMC" }, "geometry": { "type": "Point", "coordinates": [ 147.12698, -36.88507, 0.0 ] } },
{ "type": "Feature", "properties": { "name": "Hut: Black Snake Creek (1930s)", "desc": "Hut: Black Snake Creek" }, "geometry": { "type": "Point", "coordinates": [ 147.14065, -37.44608, 0.0 ] } },
{ "type": "Feature", "properties": { "name": "Hut: Lee Creek Hut (approx)", "desc": "Hut: Lee Creek" }, "geometry": { "type": "Point", "coordinates": [ 147.14283, -37.66362, 0.0 ] } },
{ "type": "Feature", "properties": { "name": "Hut: Joyce Brockhoff Hut (1949/97)", "desc": "Hut: Joyce Brockhoff" }, "geometry": { "type": "Point", "coordinates": [ 147.14635, -36.9733, 0.0 ] } },
{ "type": "Feature", "properties": { "name": "Hut: Collins (Gibraltar) Hut (1968)", "desc": "Hut: Collins" }, "geometry": { "type": "Point", "coordinates": [ 147.15488, -37.49798, 0.0 ] } },
{ "type": "Feature", "properties": { "name": "Hut: Silver Brumby Hut (1992)", "desc": "Hut: Silver Brumby" }, "geometry": { "type": "Point", "coordinates": [ 147.15715, -36.98635, 0.0 ] } },
{ "type": "Feature", "properties": { "name": "Hut: Derrick Hut (1967)", "desc": "Hut: Charles Derrick Hut" }, "geometry": { "type": "Point", "coordinates": [ 147.16057, -36.97115, 0.0 ] } },
{ "type": "Feature", "properties": { "name": "Hut: Spargos Hut (1928  2021)", "desc": "Hut: Spargos Hut" }, "geometry": { "type": "Point", "coordinates": [ 147.16295, -36.98187, 0.0 ] } },
{ "type": "Feature", "properties": { "name": "Hut: Lankey Plain (Gows) Hut (1960s)", "desc": "Hut: Lankey Plain" }, "geometry": { "type": "Point", "coordinates": [ 147.16816, -37.1114, 0.0 ] } },
{ "type": "Feature", "properties": { "name": "Hut: Blairs Hut (1931)", "desc": "Hut: Blairs" }, "geometry": { "type": "Point", "coordinates": [ 147.17325, -36.91979, 0.0 ] } },
{ "type": "Feature", "properties": { "name": "Hut: Wire Plain Public Shelter", "desc": "1/02/2022 11:39" }, "geometry": { "type": "Point", "coordinates": [ 147.17577, -36.99711, 1631.29 ] } },
{ "type": "Feature", "properties": { "name": "Hut: Wire Plain (Howards) (1962  LOCKED)", "desc": "1/02/2022 11:36" }, "geometry": { "type": "Point", "coordinates": [ 147.17603, -36.99657, 1632.204 ] } },
{ "type": "Feature", "properties": { "name": "Hut: PMG Hut (approx)", "desc": "Hut: PMG" }, "geometry": { "type": "Point", "coordinates": [ 147.17628, -36.9235, 0.0 ] } },
{ "type": "Feature", "properties": { "name": "Hut: Dibbins Hut (1987/92)", "desc": "Hut: Dibbins" }, "geometry": { "type": "Point", "coordinates": [ 147.1824, -36.9486, 0.0 ] } },
{ "type": "Feature", "properties": { "name": "Hut: Bogong Jack Saddle SEC Hut (1950s)", "desc": "Hut: Bogong Jack Saddle" }, "geometry": { "type": "Point", "coordinates": [ 147.18483, -36.83372, 0.0 ] } },
{ "type": "Feature", "properties": { "name": "Hut: Westons Hut (1939-2009 2010-)", "desc": "Hut: Westons Burnt" }, "geometry": { "type": "Point", "coordinates": [ 147.18767, -36.91695, 0.0 ] } },
{ "type": "Feature", "properties": { "name": "Hut: Radio Hut", "desc": "Hut: RADIO HUT" }, "geometry": { "type": "Point", "coordinates": [ 147.19758, -36.7851, 0.0 ] } },
{ "type": "Feature", "properties": { "name": "Hut: Tawonga Huts (1928/40/50ss)", "desc": "Hut: Tawonga" }, "geometry": { "type": "Point", "coordinates": [ 147.20301, -36.89772, 0.0 ] } },
{ "type": "Feature", "properties": { "name": "Hut: Treasures (Mt Ewen) Huts (1939-50s)", "desc": "29/12/2018 9:05" }, "geometry": { "type": "Point", "coordinates": [ 147.21266, -37.3204, 0.0 ] } },
{ "type": "Feature", "properties": { "name": "Hut: Youngs Top Hut (1940s)", "desc": "Hut: Youngs Top" }, "geometry": { "type": "Point", "coordinates": [ 147.21508, -36.95167, 0.0 ] } },
{ "type": "Feature", "properties": { "name": "Hut: JB Plain Hut (1960s/1978)", "desc": "Hut: JB Plain" }, "geometry": { "type": "Point", "coordinates": [ 147.22161, -37.02317, 0.0 ] } },
{ "type": "Feature", "properties": { "name": "Hut: Dinner Plain CRB (1924)", "desc": "Hut: Dinner Plain CRB (1924)" }, "geometry": { "type": "Point", "coordinates": [ 147.23675, -37.02077, 0.0 ] } },
{ "type": "Feature", "properties": { "name": "Hut: Replica hut", "desc": "1/02/2022 13:11" }, "geometry": { "type": "Point", "coordinates": [ 147.23959, -37.02131, 0.0 ] } },
{ "type": "Feature", "properties": { "name": "Hut: Mt Mckay Hut", "desc": "Hut: Mt Mckay" }, "geometry": { "type": "Point", "coordinates": [ 147.2432, -36.875, 0.0 ] } },
{ "type": "Feature", "properties": { "name": "Hut: Pretty Valley Toilet", "desc": "Hut: Pretty Valley" }, "geometry": { "type": "Point", "coordinates": [ 147.24868, -36.89447, 0.0 ] } },
{ "type": "Feature", "properties": { "name": "Hut: Pretty Valley SEC Hut (1960)", "desc": "Hut: PRETTY VALLEY HUT" }, "geometry": { "type": "Point", "coordinates": [ 147.25108, -36.8936, 0.0 ] } },
{ "type": "Feature", "properties": { "name": "Hut: Treasures Shepherds Plain (1975)", "desc": "Hut: Treasures Shepherds Plain" }, "geometry": { "type": "Point", "coordinates": [ 147.25908, -37.15489, 0.0 ] } },
{ "type": "Feature", "properties": { "name": "Hut: Hollow (Bob's) Hut (1963)", "desc": "20/04/2019 10:37" }, "geometry": { "type": "Point", "coordinates": [ 147.25896, -36.67402, 1143.0 ] } },
{ "type": "Feature", "properties": { "name": "Hut: Ryders (Campbells) Hut (1975)", "desc": "Hut: Ryders" }, "geometry": { "type": "Point", "coordinates": [ 147.26103, -36.93174, 0.0 ] } },
{ "type": "Feature", "properties": { "name": "Hut: Cope Saddle SEC Hut (c1960)", "desc": "Hut: Cope Saddle" }, "geometry": { "type": "Point", "coordinates": [ 147.26121, -36.92192, 0.0 ] } },
{ "type": "Feature", "properties": { "name": "Hut: Summit Hut", "desc": "Hut: SUMMIT HUT" }, "geometry": { "type": "Point", "coordinates": [ 147.26576, -36.86527, 0.0 ] } },
{ "type": "Feature", "properties": { "name": "Hut: Mintabyng Hut", "desc": "Hut: Mintabyng Hut" }, "geometry": { "type": "Point", "coordinates": [ 135.24626, -30.28903, 0.0 ] } },
{ "type": "Feature", "properties": { "name": "Hut: Cope Hut (1929)", "desc": "Hut: Cope Hut" }, "geometry": { "type": "Point", "coordinates": [ 147.29251, -36.90662, 0.0 ] } },
{ "type": "Feature", "properties": { "name": "Hut: unknown condition (approx)", "desc": "structure?" }, "geometry": { "type": "Point", "coordinates": [ 147.29523, -37.32838, 0.0 ] } },
{ "type": "Feature", "properties": { "name": "Hut: Bivouac (Staircase) Hut (1981)", "desc": "Bivouac Hut (approx)" }, "geometry": { "type": "Point", "coordinates": [ 147.29507, -36.71345, 0.0 ] } },
{ "type": "Feature", "properties": { "name": "Hut: Rover Scout Chalet (1940)", "desc": "Hut: Rover Scout Chalet" }, "geometry": { "type": "Point", "coordinates": [ 147.30305, -36.90408, 0.0 ] } },
{ "type": "Feature", "properties": { "name": "Hut: Cairn Creek SEC Hut (1952)", "desc": "Hut: Cairn Creek SEC" }, "geometry": { "type": "Point", "coordinates": [ 147.30323, -36.77575, 0.0 ] } },
{ "type": "Feature", "properties": { "name": "Hut: Scout (Jurgles Trackäó_ Granya) Hut (1940)", "desc": "Granya Scout Hut (approx)" }, "geometry": { "type": "Point", "coordinates": [ 147.30143, -36.11387, 0.0 ] } },
{ "type": "Feature", "properties": { "name": "Hut: Wallaces Hut (1889/1946)", "desc": "Hut: Wallaces" }, "geometry": { "type": "Point", "coordinates": [ 147.30721, -36.89655, 0.0 ] } },
{ "type": "Feature", "properties": { "name": "Hut: Wilkinsons Memorial Hut (1932)", "desc": "Hut: Wilkinsons Memorial Site" }, "geometry": { "type": "Point", "coordinates": [ 147.30815, -36.89918, 0.0 ] } },
{ "type": "Feature", "properties": { "name": "Hut: Boggy Creek CRB (1924)", "desc": "Hut: Boggy Creek CRB" }, "geometry": { "type": "Point", "coordinates": [ 147.31366, -37.04667, 0.0 ] } },
{ "type": "Feature", "properties": { "name": "Hut: McNamaras Dinner Plain Hut (1917)", "desc": "Hut: MacNamaras Dinner Plain" }, "geometry": { "type": "Point", "coordinates": [ 147.31458, -36.98875, 0.0 ] } },
{ "type": "Feature", "properties": { "name": "Hut: Michelle (Refuge) Hut (1967-2003 2005-)", "desc": "Michell Refuge Hut ruin? burn 2003?" }, "geometry": { "type": "Point", "coordinates": [ 147.31276, -36.71967, 0.0 ] } },
{ "type": "Feature", "properties": { "name": "Hut: Maddison (Ropers) Hut (moved 1993)", "desc": "Hut: Maddison Ropers" }, "geometry": { "type": "Point", "coordinates": [ 147.32005, -36.88865, 0.0 ] } },
{ "type": "Feature", "properties": { "name": "Hut: Langford Gap SEC Refuge Hut (1960)", "desc": "Langford Gap SEC Refuge Hut" }, "geometry": { "type": "Point", "coordinates": [ 147.3224, -36.88492, 0.0 ] } },
{ "type": "Feature", "properties": { "name": "Hut: Faithfulls Hut (1962)", "desc": "Hut: Faithfulls" }, "geometry": { "type": "Point", "coordinates": [ 147.32863, -36.93297, 0.0 ] } },
{ "type": "Feature", "properties": { "name": "Hut: Cleve Cole Hut (1937)", "desc": "Hut: Cleve Cole" }, "geometry": { "type": "Point", "coordinates": [ 147.32718, -36.75594, 0.0 ] } },
{ "type": "Feature", "properties": { "name": "Hut: Edmonsons Hut (1953)", "desc": "Hut: Edmonsons" }, "geometry": { "type": "Point", "coordinates": [ 147.33206, -36.84789, 0.0 ] } },
{ "type": "Feature", "properties": { "name": "Hut: McNamara's Bucketty Plain Hut (1940-2003 2004-)", "desc": "Hut: Bucketty (McNamara)" }, "geometry": { "type": "Point", "coordinates": [ 147.33388, -36.95492, 0.0 ] } },
{ "type": "Feature", "properties": { "name": "Hut: Hodgkins (Toms) Hut (1960s)", "desc": "Toms Hut" }, "geometry": { "type": "Point", "coordinates": [ 147.34336, -36.6076, 0.0 ] } },
{ "type": "Feature", "properties": { "name": "Hut: Scotts Homestead Hut", "desc": "Hut: Scotts Homestead" }, "geometry": { "type": "Point", "coordinates": [ 147.35111, -37.5716, 0.0 ] } },
{ "type": "Feature", "properties": { "name": "Hut: Johnstons (Telemark) Hut (1976)", "desc": "Hut: Johnstons" }, "geometry": { "type": "Point", "coordinates": [ 147.35186, -36.84838, 0.0 ] } },
{ "type": "Feature", "properties": { "name": "Hut: Normanby Mine Hut (1970)", "desc": "Hut: Normanby Mine" }, "geometry": { "type": "Point", "coordinates": [ 147.35583, -37.46589, 0.0 ] } },
{ "type": "Feature", "properties": { "name": "Hut: The Hollow Hut", "desc": "Hut: THE HOLLOW HUT" }, "geometry": { "type": "Point", "coordinates": [ 147.35343, -36.69959, 0.0 ] } },
{ "type": "Feature", "properties": { "name": "Hut: Fitzgeralds Hut (1903-91/1993-)", "desc": "Hut: Fitzgeralds" }, "geometry": { "type": "Point", "coordinates": [ 147.36518, -36.87623, 0.0 ] } },
{ "type": "Feature", "properties": { "name": "Hut: Kellys (SEC Rocky Valley Survey) Hut (1928 moved here 1958)", "desc": "Hut: Kellys" }, "geometry": { "type": "Point", "coordinates": [ 147.37168, -36.87402, 0.0 ] } },
{ "type": "Feature", "properties": { "name": "Hut: Mitta Mitta Historic Reserve Hut", "desc": "Hut: Mitta Mitta Historic Reserve" }, "geometry": { "type": "Point", "coordinates": [ 147.37451, -36.53749, 0.0 ] } },
{ "type": "Feature", "properties": { "name": "Hut: Wallers (Carruthers) Hut (1969)", "desc": "Hut: Wallers" }, "geometry": { "type": "Point", "coordinates": [ 147.39172, -37.49747, 0.0 ] } },
{ "type": "Feature", "properties": { "name": "Hut: Seymour Logging Hut (1948)(approx)", "desc": "Hut: Seymour Logging" }, "geometry": { "type": "Point", "coordinates": [ 147.44582, -37.2171, 0.0 ] } },
{ "type": "Feature", "properties": { "name": "Hut: Woolybutt (Tallangatta Ski Lodge) Hut (1948/92)(Private)", "desc": "Hut: Tallangatta Ski Lodge" }, "geometry": { "type": "Point", "coordinates": [ 147.46853, -36.79462, 0.0 ] } },
{ "type": "Feature", "properties": { "name": "Hut: Mt Wills Fire Lookout Quarters (1970)", "desc": "Hut: Mt Wills Fire Lookout Quarters (1970)" }, "geometry": { "type": "Point", "coordinates": [ 147.47396, -36.81142, 0.0 ] } },
{ "type": "Feature", "properties": { "name": "Hut: Dunstan's Hut (1948)", "desc": "Hut: Dunstan's Hut (1948)" }, "geometry": { "type": "Point", "coordinates": [ 147.47576, -36.78309, 0.0 ] } },
{ "type": "Feature", "properties": { "name": "Hut: Coulta Hut", "desc": "Hut: Coulta Hut" }, "geometry": { "type": "Point", "coordinates": [ 135.46498, -34.36784, 0.0 ] } },
{ "type": "Feature", "properties": { "name": "Hut: Mcdonalds Hut (1955)", "desc": "30/03/2013 12:16" }, "geometry": { "type": "Point", "coordinates": [ 147.49238, -37.34723, 321.869 ] } },
{ "type": "Feature", "properties": { "name": "Hut: Glen Wills Hut (approx)", "desc": "Hut: Glen Wills" }, "geometry": { "type": "Point", "coordinates": [ 147.49786, -36.83868, 0.0 ] } },
{ "type": "Feature", "properties": { "name": "Hut: Merrijig Creek (approx)", "desc": "Hut: Merrijig Creek" }, "geometry": { "type": "Point", "coordinates": [ 147.52883, -37.576, 0.0 ] } },
{ "type": "Feature", "properties": { "name": "Hut: Marthavale Hut (1953)", "desc": "Hut: Marthavale" }, "geometry": { "type": "Point", "coordinates": [ 147.52708, -37.44637, 0.0 ] } },
{ "type": "Feature", "properties": { "name": "Hut: Mt Delusion (Tom Carroll's) Hut (Almost-Ruin) (1939-)", "desc": "Mt Delusion Hut Almost-Ruin" }, "geometry": { "type": "Point", "coordinates": [ 147.53663, -37.32562, 0.0 ] } },
{ "type": "Feature", "properties": { "name": "Hut: Prospect Creek (approx)", "desc": "Hut: Prospect Creek" }, "geometry": { "type": "Point", "coordinates": [ 147.54057, -37.62352, 0.0 ] } },
{ "type": "Feature", "properties": { "name": "Hut: Kellidie Hut", "desc": "Hut: Kellidie Hut" }, "geometry": { "type": "Point", "coordinates": [ 135.52396, -34.6086, 0.0 ] } },
{ "type": "Feature", "properties": { "name": "Hut: Hut (approx)", "desc": "24/11/2021 11:55" }, "geometry": { "type": "Point", "coordinates": [ 147.56315, -37.31166, 0.0 ] } },
{ "type": "Feature", "properties": { "name": "Hut: Towermans MT BENAMBRA", "desc": "Hut: Towermans MT BENAMBRA" }, "geometry": { "type": "Point", "coordinates": [ 147.57263, -36.50645, 0.0 ] } },
{ "type": "Feature", "properties": { "name": "Hut: Carr-Villa Hut (Approx)", "desc": "OSM" }, "geometry": { "type": "Point", "coordinates": [ 147.6309, -41.51073, 0.0 ] } },
{ "type": "Feature", "properties": { "name": "Hut: Wombat Post Office Hut (1969)", "desc": "Hut: Wombat PO" }, "geometry": { "type": "Point", "coordinates": [ 147.59268, -36.77262, 0.0 ] } },
{ "type": "Feature", "properties": { "name": "Hut: Strobridge Huts (Lucys) (1895/1934-)", "desc": "Hut: Strobridge 1934 falling into dis" }, "geometry": { "type": "Point", "coordinates": [ 147.59938, -37.32442, 0.0 ] } },
{ "type": "Feature", "properties": { "name": "Hut: Roughriders Hut", "desc": "Hut: Roughriders" }, "geometry": { "type": "Point", "coordinates": [ 147.60046, -37.09517, 0.0 ] } },
{ "type": "Feature", "properties": { "name": "Hut: Kolay Hut", "desc": "Hut: Kolay Hut" }, "geometry": { "type": "Point", "coordinates": [ 135.58768, -32.55697, 0.0 ] } },
{ "type": "Feature", "properties": { "name": "Hut: Quart Pot Flat Hut (1932)", "desc": "Quart Pot Flat Hut" }, "geometry": { "type": "Point", "coordinates": [ 147.62368, -36.73892, 0.0 ] } },
{ "type": "Feature", "properties": { "name": "Hut: Turntable (Baldhead) logging huts (1949-2020)", "desc": "1/04/2013 12:10" }, "geometry": { "type": "Point", "coordinates": [ 147.62953, -37.41293, 278.892 ] } },
{ "type": "Feature", "properties": { "name": "Hut: King Cassilis Mine (Avery's) Hut (1940s)(approx)", "desc": "Hut: King Cassilis Mine" }, "geometry": { "type": "Point", "coordinates": [ 147.62995, -37.25199, 0.0 ] } },
{ "type": "Feature", "properties": { "name": "Hut: Stuttering Fred Hut (approx)", "desc": "Hut: Stuttering Fred" }, "geometry": { "type": "Point", "coordinates": [ 147.63746, -37.5628, 0.0 ] } },
{ "type": "Feature", "properties": { "name": "Hut: Kennedys Hut (1966) (approx)", "desc": "Kennedys Hut" }, "geometry": { "type": "Point", "coordinates": [ 147.65743, -36.81518, 0.0 ] } },
{ "type": "Feature", "properties": { "name": "Hut: Kennedys Hut (approx)", "desc": "Hut: Kennedys Hut (approx)" }, "geometry": { "type": "Point", "coordinates": [ 147.66621, -36.80772, 0.0 ] } },
{ "type": "Feature", "properties": { "name": "Hut: Fishery Hut", "desc": "Hut: Fishery Hut" }, "geometry": { "type": "Point", "coordinates": [ 135.65796, -34.90172, 0.0 ] } },
{ "type": "Feature", "properties": { "name": "Hut: Hillview Retreat Cabin", "desc": "Hut: Hillview Retreat Cabin" }, "geometry": { "type": "Point", "coordinates": [ 147.68075, -37.27835, 0.0 ] } },
{ "type": "Feature", "properties": { "name": "Hut: Lavertys Hut (1981)", "desc": "Lavertys Hut approx" }, "geometry": { "type": "Point", "coordinates": [ 147.68961, -36.2493, 0.0 ] } },
{ "type": "Feature", "properties": { "name": "Hut: Lavertys Hut (1981)", "desc": "Lavertys Hut approx" }, "geometry": { "type": "Point", "coordinates": [ 147.68961, -36.2493, 0.0 ] } },
{ "type": "Feature", "properties": { "name": "Hut: Kolaymerrika Hut", "desc": "Hut: Kolaymerrika Hut" }, "geometry": { "type": "Point", "coordinates": [ 135.6872, -32.31965, 0.0 ] } },
{ "type": "Feature", "properties": { "name": "Hut: Lazy H Hut (1939) (Locked)", "desc": "Hut: LAZY H HUT (Locked)" }, "geometry": { "type": "Point", "coordinates": [ 147.74178, -36.7236, 0.0 ] } },
{ "type": "Feature", "properties": { "name": "Hut: Geedobbie Hut", "desc": "Hut: Geedobbie Hut" }, "geometry": { "type": "Point", "coordinates": [ 135.7481, -34.63327, 0.0 ] } },
{ "type": "Feature", "properties": { "name": "Hut: Mopoke Hut (1962)", "desc": "6/11/2020 15:16" }, "geometry": { "type": "Point", "coordinates": [ 141.75948, -34.81107, 0.0 ] } },
{ "type": "Feature", "properties": { "name": "Hut: Surveyors Cabin (Approx)", "desc": "OSM" }, "geometry": { "type": "Point", "coordinates": [ 147.89946, -43.16833, 0.0 ] } },
{ "type": "Feature", "properties": { "name": "Hut: Murphy's Hut", "desc": "Hut: MURPHYS HUT" }, "geometry": { "type": "Point", "coordinates": [ 141.85451, -38.07677, 0.0 ] } },
{ "type": "Feature", "properties": { "name": "Hut: Retakunna Cabin (Approx)", "desc": "OSM" }, "geometry": { "type": "Point", "coordinates": [ 147.95001, -43.18025, 0.0 ] } },
{ "type": "Feature", "properties": { "name": "Hut: Washington Winch Cover Hut", "desc": "Hut: Washington Winch Cover" }, "geometry": { "type": "Point", "coordinates": [ 147.88328, -37.2117, 0.0 ] } },
{ "type": "Feature", "properties": { "name": "Hut: Munro Cabin (Approx)", "desc": "OSM" }, "geometry": { "type": "Point", "coordinates": [ 147.96521, -43.19925, 0.0 ] } },
{ "type": "Feature", "properties": { "name": "Hut: Wheelers Creek Hut (1976-2020  2022-)", "desc": "Wheelers Creek Hutã burned 2020" }, "geometry": { "type": "Point", "coordinates": [ 147.87713, -36.54692, 0.0 ] } },
{ "type": "Feature", "properties": { "name": "Hut: Lind Lodge (Upper Murray Ski) Hut (1951-2020  2022-)", "desc": "Lind Lodge Hut BURNED" }, "geometry": { "type": "Point", "coordinates": [ 147.8898, -36.48548, 0.0 ] } },
{ "type": "Feature", "properties": { "name": "Hut: Pillie Hut", "desc": "Hut: Pillie Hut" }, "geometry": { "type": "Point", "coordinates": [ 135.87858, -34.84034, 0.0 ] } },
{ "type": "Feature", "properties": { "name": "Hut: Koonalda Homestead (must see)", "desc": "Hut: Koonalda Homestead (must see)" }, "geometry": { "type": "Point", "coordinates": [ 129.85885, -31.45636, 0.0 ] } },
{ "type": "Feature", "properties": { "name": "Hut: Bentley Plain Hut", "desc": "Hut: Bentley Plain" }, "geometry": { "type": "Point", "coordinates": [ 147.92316, -37.22807, 0.0 ] } },
{ "type": "Feature", "properties": { "name": "Hut: Moscow Villa (1943)", "desc": "Hut: Moscow Villa" }, "geometry": { "type": "Point", "coordinates": [ 147.92215, -37.22635, 0.0 ] } },
{ "type": "Feature", "properties": { "name": "Hut: Buenba Hut (1940s) (approx)", "desc": "Hut: Buenba Hut (1940s) (approx)" }, "geometry": { "type": "Point", "coordinates": [ 147.91988, -36.70157, 0.0 ] } },
{ "type": "Feature", "properties": { "name": "Hut: Commins Hut (1948) (approx)", "desc": "Hut: Commins" }, "geometry": { "type": "Point", "coordinates": [ 147.94203, -37.13918, 0.0 ] } },
{ "type": "Feature", "properties": { "name": "Hut: Woodhouse Loggin Camp (1942)(approx)", "desc": "Hut: Woodhouse Creek" }, "geometry": { "type": "Point", "coordinates": [ 147.94493, -37.25159, 0.0 ] } },
{ "type": "Feature", "properties": { "name": "Hut: Murphys Hut (1946)", "desc": "Hut: Murphys" }, "geometry": { "type": "Point", "coordinates": [ 147.95396, -37.1713, 0.0 ] } },
{ "type": "Feature", "properties": { "name": "Hut: Gibsons Mt Pinnibar Hut (1950s-2020  2022-)", "desc": "Mt Pinnibar Hut" }, "geometry": { "type": "Point", "coordinates": [ 147.9503, -36.5204, 0.0 ] } },
{ "type": "Feature", "properties": { "name": "Hut: Long Plain Hut", "desc": "Hut: Long Plain - ruin?" }, "geometry": { "type": "Point", "coordinates": [ 147.97046, -36.84295, 0.0 ] } },
{ "type": "Feature", "properties": { "name": "Hut: Flying Swagman Hut (c1967)", "desc": "Flying Swagman Hut (approx)" }, "geometry": { "type": "Point", "coordinates": [ 147.97671, -36.18564, 0.0 ] } },
{ "type": "Feature", "properties": { "name": "Hut: Turners (1981)(approx)", "desc": "Hut: Turners (1981)(approx)" }, "geometry": { "type": "Point", "coordinates": [ 147.99247, -37.20347, 0.0 ] } },
{ "type": "Feature", "properties": { "name": "Hut: Flying Swagman", "desc": "Hut: Flying Swagman" }, "geometry": { "type": "Point", "coordinates": [ 147.98091, -36.18352, 0.0 ] } },
{ "type": "Feature", "properties": { "name": "Hut: Buckwong Hut (sometimes locked)", "desc": "Buckwong Hut (approx)" }, "geometry": { "type": "Point", "coordinates": [ 148.00576, -36.74284, 0.0 ] } },
{ "type": "Feature", "properties": { "name": "Hut: Bunroy Hut", "desc": "Hut: BUNROY HUT" }, "geometry": { "type": "Point", "coordinates": [ 148.00785, -36.3806, 0.0 ] } },
{ "type": "Feature", "properties": { "name": "Hut: Brophys (approx)", "desc": "Hut: Brophys (approx)" }, "geometry": { "type": "Point", "coordinates": [ 148.03426, -37.51853, 0.0 ] } },
{ "type": "Feature", "properties": { "name": "Hut: Brophys Hut (approx)", "desc": "Brophys Hut (approx)" }, "geometry": { "type": "Point", "coordinates": [ 148.02303, -36.61609, 0.0 ] } },
{ "type": "Feature", "properties": { "name": "Hut: Penders Limestone Creek (1880s) Private", "desc": "hut? private?" }, "geometry": { "type": "Point", "coordinates": [ 148.04654, -36.86315, 0.0 ] } },
{ "type": "Feature", "properties": { "name": "Hut: CRB Hut Guaging station(1920s)", "desc": "Hut: Limestone Creek (Penders)" }, "geometry": { "type": "Point", "coordinates": [ 148.05531, -36.85487, 0.0 ] } },
{ "type": "Feature", "properties": { "name": "Hut: Hoggs Hut", "desc": "Hoggs Hut (approx)" }, "geometry": { "type": "Point", "coordinates": [ 148.04973, -36.35517, 0.0 ] } },
{ "type": "Feature", "properties": { "name": "Hut: Wonga Hut", "desc": "OSM" }, "geometry": { "type": "Point", "coordinates": [ 142.05116, -35.58507, 0.0 ] } },
{ "type": "Feature", "properties": { "name": "Hut: Burrunj Rock Shelter", "desc": "Hut: BURRUNJ SHELTER" }, "geometry": { "type": "Point", "coordinates": [ 142.08966, -37.10242, 0.0 ] } },
{ "type": "Feature", "properties": { "name": "Hut: Mudadgadjin Shelter", "desc": "Hut: MUDADGADJIN SHELTER" }, "geometry": { "type": "Point", "coordinates": [ 142.09373, -37.09895, 0.0 ] } },
{ "type": "Feature", "properties": { "name": "Hut: Davies Plain Hut (1939/1995)", "desc": "Daveys Plain Hut (approx)" }, "geometry": { "type": "Point", "coordinates": [ 148.12543, -36.65163, 0.0 ] } },
{ "type": "Feature", "properties": { "name": "Hut: Tom Groggin (Dog man) Hut (1964)", "desc": "Dogmans Hut (approx)" }, "geometry": { "type": "Point", "coordinates": [ 148.13278, -36.53777, 0.0 ] } },
{ "type": "Feature", "properties": { "name": "Hut: Major Clews Hut", "desc": "Major Clews Hut Hut" }, "geometry": { "type": "Point", "coordinates": [ 148.14285, -36.29304, 0.0 ] } },
{ "type": "Feature", "properties": { "name": "Hut: Middle Mountain (Rogers) Hut (1962)", "desc": "Hut: Middle Mountain" }, "geometry": { "type": "Point", "coordinates": [ 148.17753, -36.92633, 0.0 ] } },
{ "type": "Feature", "properties": { "name": "Hut: Doctors Hut (1940s)", "desc": "Doctors Hut (approx)" }, "geometry": { "type": "Point", "coordinates": [ 148.1715, -36.36645, 0.0 ] } },
{ "type": "Feature", "properties": { "name": "Hut: Keebles Hut", "desc": "Keebles Hut" }, "geometry": { "type": "Point", "coordinates": [ 148.17445, -36.36912, 0.0 ] } },
{ "type": "Feature", "properties": { "name": "Hut: Geehi Hut (1952)", "desc": "Hut: Geehi Hut (1952)" }, "geometry": { "type": "Point", "coordinates": [ 148.17958, -36.37745, 0.0 ] } },
{ "type": "Feature", "properties": { "name": "Hut: SMA Seismic Station Geehi Hut (approx)", "desc": "SMA Seismic Station Geehi Hut" }, "geometry": { "type": "Point", "coordinates": [ 148.1818, -36.41722, 0.0 ] } },
{ "type": "Feature", "properties": { "name": "Hut: Geehi Shelter", "desc": "Hut: Geehi Shelter" }, "geometry": { "type": "Point", "coordinates": [ 148.18128, -36.38524, 0.0 ] } },
{ "type": "Feature", "properties": { "name": "Hut: Mt Seldom Seen Fire Lookout Hut (1967)", "desc": "Hut: Mt Seldom Seen Fire Lookout Hut (1967)" }, "geometry": { "type": "Point", "coordinates": [ 148.19283, -37.09718, 0.0 ] } },
{ "type": "Feature", "properties": { "name": "Hut: Doctor Forbes Hut (1940s)", "desc": "Doctor Forbes Hut" }, "geometry": { "type": "Point", "coordinates": [ 148.18301, -36.39203, 0.0 ] } },
{ "type": "Feature", "properties": { "name": "Hut: Yellow Bog2", "desc": "Hut: Yellow Bog2" }, "geometry": { "type": "Point", "coordinates": [ 148.19325, -36.04789, 0.0 ] } },
{ "type": "Feature", "properties": { "name": "Hut: Buddong Hut", "desc": "10/04/2021 8:26" }, "geometry": { "type": "Point", "coordinates": [ 148.22007, -35.64342, 0.0 ] } },
{ "type": "Feature", "properties": { "name": "Hut: Charlie Carters Hut (1938) and Tin Mine Barn", "desc": "Charlie Carters Hut" }, "geometry": { "type": "Point", "coordinates": [ 148.25073, -36.70017, 0.0 ] } },
{ "type": "Feature", "properties": { "name": "Hut: Cascades Hut", "desc": "Cascades Hut" }, "geometry": { "type": "Point", "coordinates": [ 148.25766, -36.58324, 0.0 ] } },
{ "type": "Feature", "properties": { "name": "Hut: Cootapatamba Hut (1952)", "desc": "Cootapatamba Hut" }, "geometry": { "type": "Point", "coordinates": [ 148.25612, -36.47752, 0.0 ] } },
{ "type": "Feature", "properties": { "name": "Hut: Wheelers Hut", "desc": "Wheelers Hut" }, "geometry": { "type": "Point", "coordinates": [ 148.25295, -36.11399, 0.0 ] } },
{ "type": "Feature", "properties": { "name": "Hut: Devils Kitchen (Rock Shelter) (approx)", "desc": "Hut: Devils Kitchen (Rock Shelter) (approx)" }, "geometry": { "type": "Point", "coordinates": [ 148.25776, -36.27273, 0.0 ] } },
{ "type": "Feature", "properties": { "name": "Hut: Billimina Shelter", "desc": "Hut: BILLIMINA SHELTER" }, "geometry": { "type": "Point", "coordinates": [ 142.27538, -37.2481, 0.0 ] } },
{ "type": "Feature", "properties": { "name": "Hut: Stockwhip Hut (approx)", "desc": "Hut: Stockwhip Hut (approx)" }, "geometry": { "type": "Point", "coordinates": [ 148.26613, -36.65807, 0.0 ] } },
{ "type": "Feature", "properties": { "name": "Hut: Tooma River Gauging Station Hut", "desc": "Tooma River Gauging Station Hut" }, "geometry": { "type": "Point", "coordinates": [ 148.25881, -36.09992, 0.0 ] } },
{ "type": "Feature", "properties": { "name": "Hut: Lake Albina Hut", "desc": "Hut: Lake Albina Hut" }, "geometry": { "type": "Point", "coordinates": [ 148.27331, -36.43127, 0.0 ] } },
{ "type": "Feature", "properties": { "name": "Hut: Camp of the Emu Foot Shelter", "desc": "Hut: Camp OF THE EMU FOOT SHELTER" }, "geometry": { "type": "Point", "coordinates": [ 142.28748, -37.19917, 0.0 ] } },
{ "type": "Feature", "properties": { "name": "Hut: Cave of Fishes Shelter", "desc": "Hut: CAVE OF FISHES SHELTER" }, "geometry": { "type": "Point", "coordinates": [ 142.29061, -37.23867, 0.0 ] } },
{ "type": "Feature", "properties": { "name": "Hut: Seamans Hut", "desc": "Seaman?s Hut Hut" }, "geometry": { "type": "Point", "coordinates": [ 148.28276, -36.45018, 0.0 ] } },
{ "type": "Feature", "properties": { "name": "Hut: SMA House Tooma Dam Hut", "desc": "SMA House Tooma Dam Hut" }, "geometry": { "type": "Point", "coordinates": [ 148.27709, -36.05017, 0.0 ] } },
{ "type": "Feature", "properties": { "name": "Hut: Gunangidura Shelter", "desc": "Hut: GUNANGIDURA SHELTER" }, "geometry": { "type": "Point", "coordinates": [ 142.308, -37.23695, 0.0 ] } },
{ "type": "Feature", "properties": { "name": "Hut: Thiess Village (Approx)", "desc": "Hut: Thiess Village (Approx)" }, "geometry": { "type": "Point", "coordinates": [ 148.29102, -36.05189, 0.0 ] } },
{ "type": "Feature", "properties": { "name": "Hut: Patons Hut (1934-2003 2008-)", "desc": "Patons Hut" }, "geometry": { "type": "Point", "coordinates": [ 148.29545, -36.06015, 0.0 ] } },
{ "type": "Feature", "properties": { "name": "Hut: (approx)", "desc": "OSM" }, "geometry": { "type": "Point", "coordinates": [ 142.3072, -36.71437, 0.0 ] } },
{ "type": "Feature", "properties": { "name": "Hut: Puglistic Hut", "desc": "Hut: Puglistic Hut" }, "geometry": { "type": "Point", "coordinates": [ 148.29985, -36.14517, 0.0 ] } },
{ "type": "Feature", "properties": { "name": "Hut: Blue lake Hut (approx)", "desc": "Hut: Blue lake Hut (approx)" }, "geometry": { "type": "Point", "coordinates": [ 148.30721, -36.40733, 0.0 ] } },
{ "type": "Feature", "properties": { "name": "Hut: SMA House Geehi Dam Hut", "desc": "SMA House Geehi Dam Hut" }, "geometry": { "type": "Point", "coordinates": [ 148.3149, -36.30202, 0.0 ] } },
{ "type": "Feature", "properties": { "name": "Hut: Suggan Buggan Hut (approx)", "desc": "Hut: Suggan Buggan" }, "geometry": { "type": "Point", "coordinates": [ 148.32648, -36.95319, 0.0 ] } },
{ "type": "Feature", "properties": { "name": "Hut: Ingeegoodbee Hut", "desc": "Posn Accuracy=Good" }, "geometry": { "type": "Point", "coordinates": [ 148.32423, -36.82039, 0.0 ] } },
{ "type": "Feature", "properties": { "name": "Hut: Black Jack Hut", "desc": "Black Jack Hut (approx)" }, "geometry": { "type": "Point", "coordinates": [ 148.31338, -35.97462, 0.0 ] } },
{ "type": "Feature", "properties": { "name": "Hut: Grey Mare Hut (1950)", "desc": "Grey Mare Hut (approx)" }, "geometry": { "type": "Point", "coordinates": [ 148.33825, -36.21198, 0.0 ] } },
{ "type": "Feature", "properties": { "name": "Hut: Teddys Hut (approx)", "desc": "Teddys Hut" }, "geometry": { "type": "Point", "coordinates": [ 148.3439, -36.53134, 0.0 ] } },
{ "type": "Feature", "properties": { "name": "Hut: Illawong Lodge Hut", "desc": "Illawong Lodge Hut" }, "geometry": { "type": "Point", "coordinates": [ 148.35601, -36.39623, 0.0 ] } },
{ "type": "Feature", "properties": { "name": "Hut: Snowy R Gauging Station Hut (approx)", "desc": "Snowy R Gauging Station Hut" }, "geometry": { "type": "Point", "coordinates": [ 148.357, -36.39209, 0.0 ] } },
{ "type": "Feature", "properties": { "name": "Hut: Derschkos Hut", "desc": "Derschkos Hut" }, "geometry": { "type": "Point", "coordinates": [ 148.35303, -36.14238, 0.0 ] } },
{ "type": "Feature", "properties": { "name": "Hut: Valentines Hut", "desc": "Valentines Hut" }, "geometry": { "type": "Point", "coordinates": [ 148.3718, -36.22706, 0.0 ] } },
{ "type": "Feature", "properties": { "name": "Hut: Whites River Hut", "desc": "Whites River Hut" }, "geometry": { "type": "Point", "coordinates": [ 148.3858, -36.29982, 0.0 ] } },
{ "type": "Feature", "properties": { "name": "Hut: Schlink Hilton Hut", "desc": "Schlink Hilton Hut" }, "geometry": { "type": "Point", "coordinates": [ 148.38513, -36.2751, 0.0 ] } },
{ "type": "Feature", "properties": { "name": "Hut: Munyang Hut", "desc": "Munyang Hut Hut" }, "geometry": { "type": "Point", "coordinates": [ 148.39083, -36.30571, 0.0 ] } },
{ "type": "Feature", "properties": { "name": "Hut: SMA Rain Gauge Jagungal Hut", "desc": "SMA Rain Gauge Jagungal Hut" }, "geometry": { "type": "Point", "coordinates": [ 148.38952, -36.1355, 0.0 ] } },
{ "type": "Feature", "properties": { "name": "Hut: Dry Dam Ski Shelter", "desc": "Dry Dam Ski Shelter Hut (approx)" }, "geometry": { "type": "Point", "coordinates": [ 148.38823, -35.93391, 0.0 ] } },
{ "type": "Feature", "properties": { "name": "Hut: Horse Camp Hut", "desc": "Horse Camp Hut" }, "geometry": { "type": "Point", "coordinates": [ 148.39613, -36.33143, 0.0 ] } },
{ "type": "Feature", "properties": { "name": "Hut: Ravine head (approx)", "desc": "Hut: Ravine head (approx)" }, "geometry": { "type": "Point", "coordinates": [ 148.38971, -35.78395, 0.0 ] } },
{ "type": "Feature", "properties": { "name": "Hut: unknown condition (approx)", "desc": "structures" }, "geometry": { "type": "Point", "coordinates": [ 148.41383, -37.08225, 0.0 ] } },
{ "type": "Feature", "properties": { "name": "Hut: Linesmans No3 Hut", "desc": "Linesmans No3 Hut" }, "geometry": { "type": "Point", "coordinates": [ 148.39891, -36.0146, 0.0 ] } },
{ "type": "Feature", "properties": { "name": "Hut: Mawsons Hut", "desc": "Mawsons Hut Hut" }, "geometry": { "type": "Point", "coordinates": [ 148.40343, -36.22205, 0.0 ] } },
{ "type": "Feature", "properties": { "name": "Hut: O'Keefes Hut (1934)", "desc": "O'Keefes Hut Hut" }, "geometry": { "type": "Point", "coordinates": [ 148.40226, -36.12404, 0.0 ] } },
{ "type": "Feature", "properties": { "name": "Hut: Disappointment Spur Hut", "desc": "Disappointment Spur Hut" }, "geometry": { "type": "Point", "coordinates": [ 148.41417, -36.32644, 0.0 ] } },
{ "type": "Feature", "properties": { "name": "Hut: Coralbignie Hut", "desc": "Hut: Coralbignie Hut" }, "geometry": { "type": "Point", "coordinates": [ 136.35913, -32.61768, 0.0 ] } },
{ "type": "Feature", "properties": { "name": "Hut: Thatchers Mt Creek Hut (approx)", "desc": "Hut: Thatchers Mt Creek Hut (approx)" }, "geometry": { "type": "Point", "coordinates": [ 148.42945, -36.69838, 0.0 ] } },
{ "type": "Feature", "properties": { "name": "Hut: Pipers Creek Hut (approx)", "desc": "Pipers Creek Hut" }, "geometry": { "type": "Point", "coordinates": [ 148.42605, -36.3767, 0.0 ] } },
{ "type": "Feature", "properties": { "name": "Hut: Tin Hut", "desc": "Tin Hut Hut" }, "geometry": { "type": "Point", "coordinates": [ 148.42393, -36.2647, 0.0 ] } },
{ "type": "Feature", "properties": { "name": "Hut: SMA Weather Station Kings Cross Hut (approx)", "desc": "SMA Weather Station Kings Cross Hut" }, "geometry": { "type": "Point", "coordinates": [ 148.43258, -35.92514, 0.0 ] } },
{ "type": "Feature", "properties": { "name": "Hut: Bullocks (Little Thredbo) Hut", "desc": "Hut: Bullocks (Little Thredbo) Hut" }, "geometry": { "type": "Point", "coordinates": [ 148.4431, -36.43673, 0.0 ] } },
{ "type": "Feature", "properties": { "name": "Hut: Gattamurh Creek Hut (c1969)", "desc": "Hut: Gattamurh Creek" }, "geometry": { "type": "Point", "coordinates": [ 148.45681, -36.92812, 0.0 ] } },
{ "type": "Feature", "properties": { "name": "Hut: Tumut River Gauging Station Hut", "desc": "Tumut River Gauging Station Hut" }, "geometry": { "type": "Point", "coordinates": [ 148.44018, -36.02032, 0.0 ] } },
{ "type": "Feature", "properties": { "name": "Hut: Electricty Commission", "desc": "Hut: Electricty Commission" }, "geometry": { "type": "Point", "coordinates": [ 148.44108, -35.89155, 0.0 ] } },
{ "type": "Feature", "properties": { "name": "Hut: Boltons Hut (approx)", "desc": "Hut: Boltons Hut (approx)" }, "geometry": { "type": "Point", "coordinates": [ 148.45276, -36.30492, 0.0 ] } },
{ "type": "Feature", "properties": { "name": "Hut: Cesjacks Hut (1944)", "desc": "Cesjacks Hut" }, "geometry": { "type": "Point", "coordinates": [ 148.45196, -36.1462, 0.0 ] } },
{ "type": "Feature", "properties": { "name": "Hut: Lindleys Hut", "desc": "Lindleys Hut Hut" }, "geometry": { "type": "Point", "coordinates": [ 148.44603, -35.49523, 0.0 ] } },
{ "type": "Feature", "properties": { "name": "Hut: Bob's Hut", "desc": "structure" }, "geometry": { "type": "Point", "coordinates": [ 148.48433, -37.48223, 0.0 ] } },
{ "type": "Feature", "properties": { "name": "Hut: Katingal (Grunnsunds) Hut (1979) (approx)", "desc": "Katingal Hut" }, "geometry": { "type": "Point", "coordinates": [ 148.45955, -36.14853, 0.0 ] } },
{ "type": "Feature", "properties": { "name": "Hut: Sandy Creek Hut", "desc": "Posn Accuracy=Good" }, "geometry": { "type": "Point", "coordinates": [ 148.47463, -36.85184, 0.0 ] } },
{ "type": "Feature", "properties": { "name": "Hut: Kidmans Hut", "desc": "Kidmans Hut" }, "geometry": { "type": "Point", "coordinates": [ 148.46696, -36.2149, 0.0 ] } },
{ "type": "Feature", "properties": { "name": "Hut: Mackays Hut", "desc": "Mackays Hut Hut" }, "geometry": { "type": "Point", "coordinates": [ 148.4643, -36.08887, 0.0 ] } },
{ "type": "Feature", "properties": { "name": "Hut: Boobee Hut", "desc": "Boobee Hut (approx)" }, "geometry": { "type": "Point", "coordinates": [ 148.46458, -36.06088, 0.0 ] } },
{ "type": "Feature", "properties": { "name": "Hut: Cotterills Cottage Hut", "desc": "Cotterills Cottage Hut (approx)" }, "geometry": { "type": "Point", "coordinates": [ 148.46253, -35.65248, 0.0 ] } },
{ "type": "Feature", "properties": { "name": "Hut: Stokes", "desc": "Hut: Stokes" }, "geometry": { "type": "Point", "coordinates": [ 148.47013, -35.44509, 0.0 ] } },
{ "type": "Feature", "properties": { "name": "Hut: Mangalo Hut", "desc": "Hut: Mangalo Hut" }, "geometry": { "type": "Point", "coordinates": [ 136.44051, -33.65747, 0.0 ] } },
{ "type": "Feature", "properties": { "name": "Hut: Elaine Mine Site (approx)", "desc": "Hut: Elaine Mine Site (approx)" }, "geometry": { "type": "Point", "coordinates": [ 148.48781, -35.94284, 0.0 ] } },
{ "type": "Feature", "properties": { "name": "Hut: Pattinsons Hut", "desc": "Pattinsons Hut" }, "geometry": { "type": "Point", "coordinates": [ 148.49198, -35.88157, 0.0 ] } },
{ "type": "Feature", "properties": { "name": "Hut: Matthews Cottage Hut", "desc": "Matthews Cottage Hut" }, "geometry": { "type": "Point", "coordinates": [ 148.4943, -35.87603, 0.0 ] } },
{ "type": "Feature", "properties": { "name": "Hut: Venables Hut (Approx)", "desc": "Venables Hut" }, "geometry": { "type": "Point", "coordinates": [ 148.48555, -35.44648, 0.0 ] } },
{ "type": "Feature", "properties": { "name": "Hut: Kiandra Courthouse Hut", "desc": "Kiandra Courthouse Hut" }, "geometry": { "type": "Point", "coordinates": [ 148.49515, -35.87337, 0.0 ] } },
{ "type": "Feature", "properties": { "name": "Hut: Broken Dam Hut", "desc": "Broken Dam Hut (approx)" }, "geometry": { "type": "Point", "coordinates": [ 148.4987, -35.95249, 0.0 ] } },
{ "type": "Feature", "properties": { "name": "Hut: Kells Hut", "desc": "Kells Hut" }, "geometry": { "type": "Point", "coordinates": [ 148.50663, -35.42202, 0.0 ] } },
{ "type": "Feature", "properties": { "name": "Hut: Kellys Hut", "desc": "Hut: Kellys Hut" }, "geometry": { "type": "Point", "coordinates": [ 148.52145, -36.12434, 0.0 ] } },
{ "type": "Feature", "properties": { "name": "Hut: Daveys Hut", "desc": "Daveys Hut" }, "geometry": { "type": "Point", "coordinates": [ 148.5339, -36.23004, 0.0 ] } },
{ "type": "Feature", "properties": { "name": "Hut: Gooandra Homestead Hut", "desc": "Gooandra Homestead Hut" }, "geometry": { "type": "Point", "coordinates": [ 148.53661, -35.80058, 0.0 ] } },
{ "type": "Feature", "properties": { "name": "Hut: Botherhum Plain Hut", "desc": "Botherhum Plain Hut" }, "geometry": { "type": "Point", "coordinates": [ 148.5481, -36.25282, 0.0 ] } },
{ "type": "Feature", "properties": { "name": "Hut: Long Plain Homestead Hut (Ruin?)", "desc": "Long Plain Homestead Hut" }, "geometry": { "type": "Point", "coordinates": [ 148.53763, -35.69728, 0.0 ] } },
{ "type": "Feature", "properties": { "name": "Hut: Old Wilcherry Homestead", "desc": "Hut: Old Wilcherry Homestead" }, "geometry": { "type": "Point", "coordinates": [ 136.4927, -32.8389, 0.0 ] } },
{ "type": "Feature", "properties": { "name": "Hut: Slaughterhouse Hut", "desc": "Posn Accuracy=Good" }, "geometry": { "type": "Point", "coordinates": [ 148.56856, -36.76525, 0.0 ] } },
{ "type": "Feature", "properties": { "name": "Hut: CSIRO Rabbit Research Hut (1967)", "desc": "https://khuts.org/images/stories/history/CSIRO%20hut%20research%20report.pdf" }, "geometry": { "type": "Point", "coordinates": [ 148.56053, -36.22929, 0.0 ] } },
{ "type": "Feature", "properties": { "name": "Hut: Tantangara Mountain Hut", "desc": "Tantangara Mountain Hut" }, "geometry": { "type": "Point", "coordinates": [ 148.55705, -35.87315, 0.0 ] } },
{ "type": "Feature", "properties": { "name": "Hut: Collins Hut (approx)", "desc": "Collins Hut (NSW) Hut (approx)" }, "geometry": { "type": "Point", "coordinates": [ 148.57593, -36.37252, 0.0 ] } },
{ "type": "Feature", "properties": { "name": "Hut: Spicers Hut (approx)", "desc": "Hut: Spicers Hut (approx)" }, "geometry": { "type": "Point", "coordinates": [ 148.56355, -35.66064, 0.0 ] } },
{ "type": "Feature", "properties": { "name": "Hut: Millers Hut", "desc": "Millers Hut Hut" }, "geometry": { "type": "Point", "coordinates": [ 148.57791, -35.7059, 0.0 ] } },
{ "type": "Feature", "properties": { "name": "Hut: Witzes Hut", "desc": "Witzes Hut" }, "geometry": { "type": "Point", "coordinates": [ 148.58334, -35.81163, 0.0 ] } },
{ "type": "Feature", "properties": { "name": "Hut: Hains Hut", "desc": "Hains Hut" }, "geometry": { "type": "Point", "coordinates": [ 148.59175, -35.76978, 0.0 ] } },
{ "type": "Feature", "properties": { "name": "Hut: Cooinbil Homestead Hut (1905)", "desc": "Cooinbil Homestead Hut" }, "geometry": { "type": "Point", "coordinates": [ 148.59708, -35.6313, 0.0 ] } },
{ "type": "Feature", "properties": { "name": "Hut: Hainsworth Hut", "desc": "Hainsworth Hut" }, "geometry": { "type": "Point", "coordinates": [ 148.6013, -35.6711, 0.0 ] } },
{ "type": "Feature", "properties": { "name": "Hut: Rugmans Hut", "desc": "Rugmans Hut" }, "geometry": { "type": "Point", "coordinates": [ 148.65318, -36.67707, 0.0 ] } },
{ "type": "Feature", "properties": { "name": "Hut: Little Peppercorn Hut (approx)", "desc": "Hut: Little Peppercorn Hut (approx)" }, "geometry": { "type": "Point", "coordinates": [ 148.63091, -35.5625, 0.0 ] } },
{ "type": "Feature", "properties": { "name": "Hut: Peppercorn Lean-to Hut (approx)", "desc": "Peppercorn Lean-to Hut" }, "geometry": { "type": "Point", "coordinates": [ 148.63493, -35.5785, 0.0 ] } },
{ "type": "Feature", "properties": { "name": "Hut: Gavels Hut", "desc": "Gavels Hut" }, "geometry": { "type": "Point", "coordinates": [ 148.66155, -35.89732, 0.0 ] } },
{ "type": "Feature", "properties": { "name": "Hut: Old Currango Hut", "desc": "Old Currango Hut" }, "geometry": { "type": "Point", "coordinates": [ 148.66436, -35.69022, 0.0 ] } },
{ "type": "Feature", "properties": { "name": "Hut: Bill Jones Hut", "desc": "Bill Jones Hut (approx)" }, "geometry": { "type": "Point", "coordinates": [ 148.66481, -35.65062, 0.0 ] } },
{ "type": "Feature", "properties": { "name": "Hut: Coolamine Homestead Hut (1883)", "desc": "Coolamine Homestead Hut (approx)" }, "geometry": { "type": "Point", "coordinates": [ 148.66497, -35.6093, 0.0 ] } },
{ "type": "Feature", "properties": { "name": "Hut: Schofields Hut", "desc": "Schofields Hut" }, "geometry": { "type": "Point", "coordinates": [ 148.67511, -35.85254, 0.0 ] } },
{ "type": "Feature", "properties": { "name": "Hut: Townsends Hut", "desc": "Townsends Hut" }, "geometry": { "type": "Point", "coordinates": [ 148.68486, -35.78419, 0.0 ] } },
{ "type": "Feature", "properties": { "name": "Hut: Mungappie Hut", "desc": "Hut: Mungappie Hut" }, "geometry": { "type": "Point", "coordinates": [ 136.59721, -31.0293, 0.0 ] } },
{ "type": "Feature", "properties": { "name": "Hut: Circuits Hut", "desc": "Circuits Hut" }, "geometry": { "type": "Point", "coordinates": [ 148.68873, -35.81894, 0.0 ] } },
{ "type": "Feature", "properties": { "name": "Hut: Valley Hut", "desc": "Hut: Valley Hut" }, "geometry": { "type": "Point", "coordinates": [ 136.6283, -32.53215, 0.0 ] } },
{ "type": "Feature", "properties": { "name": "Hut: Currango Homestead Hut", "desc": "Currango Homestead Hut" }, "geometry": { "type": "Point", "coordinates": [ 148.69571, -35.72733, 0.0 ] } },
{ "type": "Feature", "properties": { "name": "Hut: Pedens Hut", "desc": "Pedens Hut" }, "geometry": { "type": "Point", "coordinates": [ 148.70608, -35.77384, 0.0 ] } },
{ "type": "Feature", "properties": { "name": "Hut: Brayshaws Hut", "desc": "Brayshaws Hut" }, "geometry": { "type": "Point", "coordinates": [ 148.71705, -35.86762, 0.0 ] } },
{ "type": "Feature", "properties": { "name": "Hut: Oldfields No.2 Hut", "desc": "Oldfields No.2 Hut" }, "geometry": { "type": "Point", "coordinates": [ 148.72078, -35.76189, 0.0 ] } },
{ "type": "Feature", "properties": { "name": "Hut: Pockets Hut", "desc": "Pockets Hut Hut" }, "geometry": { "type": "Point", "coordinates": [ 148.72863, -35.65772, 0.0 ] } },
{ "type": "Feature", "properties": { "name": "Hut: McIntyres Hut", "desc": "McIntyres Hut Hut" }, "geometry": { "type": "Point", "coordinates": [ 148.73808, -35.2659, 0.0 ] } },
{ "type": "Feature", "properties": { "name": "Hut: Oldfields Hut", "desc": "Oldfields Hut" }, "geometry": { "type": "Point", "coordinates": [ 148.75502, -35.67745, 0.0 ] } },
{ "type": "Feature", "properties": { "name": "Hut: Mt Franklin Chalet", "desc": "Hut: Mt Franklin Chalet" }, "geometry": { "type": "Point", "coordinates": [ 148.76513, -35.49105, 0.0 ] } },
{ "type": "Feature", "properties": { "name": "Hut: Dartmoor Hut (1928)", "desc": "Hut: Dartmoor" }, "geometry": { "type": "Point", "coordinates": [ 148.80725, -37.18252, 0.0 ] } },
{ "type": "Feature", "properties": { "name": "Hut: Pryors Hut", "desc": "Pryors Hut Hut" }, "geometry": { "type": "Point", "coordinates": [ 148.77811, -35.56232, 0.0 ] } },
{ "type": "Feature", "properties": { "name": "Hut: Bag Range Hut (approx)", "desc": "Bag Range Hut" }, "geometry": { "type": "Point", "coordinates": [ 148.77379, -35.19247, 0.0 ] } },
{ "type": "Feature", "properties": { "name": "Hut: Bendora Hut", "desc": "Bendora Hut" }, "geometry": { "type": "Point", "coordinates": [ 148.79541, -35.42212, 0.0 ] } },
{ "type": "Feature", "properties": { "name": "Hut: Bulls Head Picnic Hut", "desc": "Bulls Head Picnic Hut" }, "geometry": { "type": "Point", "coordinates": [ 148.80446, -35.38787, 0.0 ] } },
{ "type": "Feature", "properties": { "name": "Hut: Corre Fire Tower hut (1960s)", "desc": "Hut: Corre Fire Tower hut (1960s)" }, "geometry": { "type": "Point", "coordinates": [ 148.81061, -35.30684, 0.0 ] } },
{ "type": "Feature", "properties": { "name": "Hut: Coree Hut (1940s)", "desc": "Hut: Coree Hut (1940s)" }, "geometry": { "type": "Point", "coordinates": [ 148.81405, -35.27515, 0.0 ] } },
{ "type": "Feature", "properties": { "name": "Hut: Centenary Hut", "desc": "Hut: Centenary Hut" }, "geometry": { "type": "Point", "coordinates": [ 136.71925, -30.42043, 0.0 ] } },
{ "type": "Feature", "properties": { "name": "Hut: Cotter Hut No3 Hut", "desc": "Cotter Hut No3 Hut (approx)" }, "geometry": { "type": "Point", "coordinates": [ 148.83108, -35.65092, 0.0 ] } },
{ "type": "Feature", "properties": { "name": "Hut: Wilsons Hut (1916)", "desc": "Hut: Wilsons" }, "geometry": { "type": "Point", "coordinates": [ 148.89248, -37.18182, 0.0 ] } },
{ "type": "Feature", "properties": { "name": "Hut: Blue Range Hut", "desc": "Blue Range Hut" }, "geometry": { "type": "Point", "coordinates": [ 148.876, -35.28954, 0.0 ] } },
{ "type": "Feature", "properties": { "name": "Hut:", "desc": "Hut:" }, "geometry": { "type": "Point", "coordinates": [ 136.91593, -35.18979, 0.0 ] } },
{ "type": "Feature", "properties": { "name": "Hut: Worrimba Hut", "desc": "Hut: Worrimba Hut" }, "geometry": { "type": "Point", "coordinates": [ 136.92095, -35.19209, 0.0 ] } },
{ "type": "Feature", "properties": { "name": "Hut: Litchfield Hut", "desc": "Hut: Litchfield Hut" }, "geometry": { "type": "Point", "coordinates": [ 136.8423, -31.17405, 0.0 ] } },
{ "type": "Feature", "properties": { "name": "Hut: Lutons Crutching Shed Hut", "desc": "Lutons Crutching Shed Hut" }, "geometry": { "type": "Point", "coordinates": [ 148.94615, -35.82677, 0.0 ] } },
{ "type": "Feature", "properties": { "name": "Hut: Waterhole Hut", "desc": "Waterhole Hut Hut" }, "geometry": { "type": "Point", "coordinates": [ 148.95188, -35.86649, 0.0 ] } },
{ "type": "Feature", "properties": { "name": "Hut: Alex Brayshaws Hut (Approx)", "desc": "OSM" }, "geometry": { "type": "Point", "coordinates": [ 148.95156, -35.83078, 0.0 ] } },
{ "type": "Feature", "properties": { "name": "Hut: Frank and Jacks Hut", "desc": "Frank and Jacks Hut (approx)" }, "geometry": { "type": "Point", "coordinates": [ 148.95886, -35.77523, 0.0 ] } },
{ "type": "Feature", "properties": { "name": "Hut: Orroral Homestead Hut", "desc": "Orroral Homestead Hut" }, "geometry": { "type": "Point", "coordinates": [ 148.95928, -35.6394, 0.0 ] } },
{ "type": "Feature", "properties": { "name": "Hut: Bobeyan Hut (Approx)", "desc": "OSM" }, "geometry": { "type": "Point", "coordinates": [ 148.96665, -35.84832, 0.0 ] } },
{ "type": "Feature", "properties": { "name": "Hut: Hospital Creek Hut", "desc": "Hospital Creek Hut" }, "geometry": { "type": "Point", "coordinates": [ 148.96696, -35.79008, 0.0 ] } },
{ "type": "Feature", "properties": { "name": "Hut: Westermans No3 Hut", "desc": "Westermans No3 Hut" }, "geometry": { "type": "Point", "coordinates": [ 148.97145, -35.88712, 0.0 ] } },
{ "type": "Feature", "properties": { "name": "Hut: ACT Forests Hut", "desc": "ACT Forests Hut" }, "geometry": { "type": "Point", "coordinates": [ 148.97411, -35.75709, 0.0 ] } },
{ "type": "Feature", "properties": { "name": "Hut: David Brayshaws Hut", "desc": "David Brayshaws Hut (approx)" }, "geometry": { "type": "Point", "coordinates": [ 148.98487, -35.87472, 0.0 ] } },
{ "type": "Feature", "properties": { "name": "Hut: Gudgenby Homestead No2 Hut", "desc": "Gudgenby Homestead No2 Hut (approx)" }, "geometry": { "type": "Point", "coordinates": [ 148.98538, -35.74293, 0.0 ] } },
{ "type": "Feature", "properties": { "name": "Hut: Gudgenby Cottage", "desc": "OSM" }, "geometry": { "type": "Point", "coordinates": [ 148.98773, -35.74362, 0.0 ] } },
{ "type": "Feature", "properties": { "name": "Hut: Purple Hut", "desc": "Hut: Purple Hut" }, "geometry": { "type": "Point", "coordinates": [ 136.89203, -30.78834, 0.0 ] } },
{ "type": "Feature", "properties": { "name": "Hut: Glendale Shed Hut", "desc": "Glendale Shed Hut" }, "geometry": { "type": "Point", "coordinates": [ 149.00513, -35.69615, 0.0 ] } },
{ "type": "Feature", "properties": { "name": "Hut: Brandy Flat No3 Hut", "desc": "Brandy Flat No3 Hut (approx)" }, "geometry": { "type": "Point", "coordinates": [ 149.02011, -35.71522, 0.0 ] } },
{ "type": "Feature", "properties": { "name": "Hut: Bushfold No6 Hut (approx)", "desc": "Bushfold No6 Hut (approx)" }, "geometry": { "type": "Point", "coordinates": [ 149.02328, -35.53825, 0.0 ] } },
{ "type": "Feature", "properties": { "name": "Hut: Black Oak Hut", "desc": "Hut: Black Oak Hut" }, "geometry": { "type": "Point", "coordinates": [ 136.97251, -32.18263, 0.0 ] } },
{ "type": "Feature", "properties": { "name": "Hut: Horse Gully No2 Hut", "desc": "Horse Gully No2 Hut" }, "geometry": { "type": "Point", "coordinates": [ 149.06591, -35.82373, 0.0 ] } },
{ "type": "Feature", "properties": { "name": "Hut: Max and Bert Oldfields Hut", "desc": "Max and Bert Oldfields (Banks) Hut" }, "geometry": { "type": "Point", "coordinates": [ 149.07201, -35.74867, 0.0 ] } },
{ "type": "Feature", "properties": { "name": "Hut: Rocky Well Hut", "desc": "Hut: Rocky Well Hut" }, "geometry": { "type": "Point", "coordinates": [ 136.97603, -31.1935, 0.0 ] } },
{ "type": "Feature", "properties": { "name": "Hut: Windy Valley Hut", "desc": "Hut: Windy Valley Hut" }, "geometry": { "type": "Point", "coordinates": [ 136.99273, -31.80762, 0.0 ] } },
{ "type": "Feature", "properties": { "name": "Hut: Balor Hut (Approx)", "desc": "OSM" }, "geometry": { "type": "Point", "coordinates": [ 148.99583, -31.32707, 0.0 ] } },
{ "type": "Feature", "properties": { "name": "Hut: Giles Hut", "desc": "Hut: Giles Hut" }, "geometry": { "type": "Point", "coordinates": [ 137.04163, -30.94044, 0.0 ] } },
{ "type": "Feature", "properties": { "name": "Hut: Ben Nevis Hut", "desc": "Hut: Ben Nevis" }, "geometry": { "type": "Point", "coordinates": [ 143.20105, -37.22847, 0.0 ] } },
{ "type": "Feature", "properties": { "name": "Hut: Tassie Hut", "desc": "Hut: Tassie Hut" }, "geometry": { "type": "Point", "coordinates": [ 137.09962, -32.6462, 0.0 ] } },
{ "type": "Feature", "properties": { "name": "Hut: Nandos Hut", "desc": "Hut: Nandos Hut" }, "geometry": { "type": "Point", "coordinates": [ 143.22771, -37.26429, 0.0 ] } },
{ "type": "Feature", "properties": { "name": "Hut: Mugwamp Hut", "desc": "Hut: Mugwamp Hut" }, "geometry": { "type": "Point", "coordinates": [ 143.23581, -37.29297, 0.0 ] } },
{ "type": "Feature", "properties": { "name": "Hut: Wirrda Hut", "desc": "Hut: Wirrda Hut" }, "geometry": { "type": "Point", "coordinates": [ 137.07187, -30.68012, 0.0 ] } },
{ "type": "Feature", "properties": { "name": "Hut: Highlands Homestead", "desc": "Hut: Highlands Homestead" }, "geometry": { "type": "Point", "coordinates": [ 137.13703, -33.19839, 0.0 ] } },
{ "type": "Feature", "properties": { "name": "Hut: Ditchfield Hut (approx)", "desc": "Hut: Ditchfield (approx)" }, "geometry": { "type": "Point", "coordinates": [ 143.27263, -37.31713, 0.0 ] } },
{ "type": "Feature", "properties": { "name": "Hut: Teddington Hut (Approx)", "desc": "OSM" }, "geometry": { "type": "Point", "coordinates": [ 143.26163, -36.8558, 0.0 ] } },
{ "type": "Feature", "properties": { "name": "Hut: Bob's Hut", "desc": "Hut" }, "geometry": { "type": "Point", "coordinates": [ 143.25978, -36.66847, 0.0 ] } },
{ "type": "Feature", "properties": { "name": "Hut: Cameron's", "desc": "10/11/2020 14:26" }, "geometry": { "type": "Point", "coordinates": [ 143.29751, -37.09389, 708.05 ] } },
{ "type": "Feature", "properties": { "name": "Hut: Desert Hut", "desc": "Hut: Desert Hut" }, "geometry": { "type": "Point", "coordinates": [ 137.24098, -35.06349, 0.0 ] } },
{ "type": "Feature", "properties": { "name": "Hut: Charles Hut", "desc": "Hut: Charles Hut" }, "geometry": { "type": "Point", "coordinates": [ 137.28308, -31.88622, 0.0 ] } },
{ "type": "Feature", "properties": { "name": "Hut: Burks Hut", "desc": "Hut: Burks Hut" }, "geometry": { "type": "Point", "coordinates": [ 137.33503, -32.41122, 0.0 ] } },
{ "type": "Feature", "properties": { "name": "Hut: Alexanders Hut (Approx)", "desc": "OSM" }, "geometry": { "type": "Point", "coordinates": [ 149.46425, -36.69444, 0.0 ] } },
{ "type": "Feature", "properties": { "name": "Hut: Bosworth Hut", "desc": "Hut: Bosworth Hut" }, "geometry": { "type": "Point", "coordinates": [ 137.34118, -31.11684, 0.0 ] } },
{ "type": "Feature", "properties": { "name": "Hut: Fresh Water Hut", "desc": "Hut: Fresh Water Hut" }, "geometry": { "type": "Point", "coordinates": [ 137.37673, -32.26934, 0.0 ] } },
{ "type": "Feature", "properties": { "name": "Hut: Bob Hut", "desc": "Hut: Bob Hut" }, "geometry": { "type": "Point", "coordinates": [ 137.48638, -35.08922, 0.0 ] } },
{ "type": "Feature", "properties": { "name": "Hut: South Eliza Hut", "desc": "Hut: South Eliza Hut" }, "geometry": { "type": "Point", "coordinates": [ 137.50041, -31.34079, 0.0 ] } },
{ "type": "Feature", "properties": { "name": "Hut: Harry Hut", "desc": "Hut: Harry Hut" }, "geometry": { "type": "Point", "coordinates": [ 137.6221, -34.97343, 0.0 ] } },
{ "type": "Feature", "properties": { "name": "Hut: Savage Hut", "desc": "Hut: Savage Hut" }, "geometry": { "type": "Point", "coordinates": [ 137.63428, -34.92704, 0.0 ] } },
{ "type": "Feature", "properties": { "name": "Hut: Beda Hut (approx)", "desc": "Hut: Beda Hut (approx)" }, "geometry": { "type": "Point", "coordinates": [ 137.54682, -31.89771, 0.0 ] } },
{ "type": "Feature", "properties": { "name": "Hut: Pruville Hut", "desc": "Hut: Pruville Hut" }, "geometry": { "type": "Point", "coordinates": [ 137.56671, -30.07354, 0.0 ] } },
{ "type": "Feature", "properties": { "name": "Hut: Woodforde Hut", "desc": "Hut: Woodforde Hut" }, "geometry": { "type": "Point", "coordinates": [ 137.64351, -31.34597, 0.0 ] } },
{ "type": "Feature", "properties": { "name": "Hut: Milner Hut", "desc": "Hut: Milner Hut" }, "geometry": { "type": "Point", "coordinates": [ 137.77306, -34.96015, 0.0 ] } },
{ "type": "Feature", "properties": { "name": "Hut: South Tiffin Hut", "desc": "Hut: South Tiffin Hut" }, "geometry": { "type": "Point", "coordinates": [ 137.6774, -31.5449, 0.0 ] } },
{ "type": "Feature", "properties": { "name": "Hut: Cultana Centre Hut", "desc": "Hut: Cultana Centre Hut" }, "geometry": { "type": "Point", "coordinates": [ 137.73912, -32.89353, 0.0 ] } },
{ "type": "Feature", "properties": { "name": "Hut: Pandappa Hut", "desc": "Hut: Pandappa Hut" }, "geometry": { "type": "Point", "coordinates": [ 137.89328, -34.41654, 0.0 ] } },
{ "type": "Feature", "properties": { "name": "Hut: West Mount Hut", "desc": "Hut: West Mount Hut" }, "geometry": { "type": "Point", "coordinates": [ 137.77236, -30.01493, 0.0 ] } },
{ "type": "Feature", "properties": { "name": "Hut: Cooranna Hut", "desc": "Hut: Cooranna Hut" }, "geometry": { "type": "Point", "coordinates": [ 137.77989, -29.52255, 0.0 ] } },
{ "type": "Feature", "properties": { "name": "Hut: South Whim Hut", "desc": "Hut: South Whim Hut" }, "geometry": { "type": "Point", "coordinates": [ 137.88056, -32.07967, 0.0 ] } },
{ "type": "Feature", "properties": { "name": "Hut: Nancy Walker Hut", "desc": "Hut: Nancy Walker Hut" }, "geometry": { "type": "Point", "coordinates": [ 137.89438, -31.82483, 0.0 ] } },
{ "type": "Feature", "properties": { "name": "Hut: Bend Hut", "desc": "Hut: Bend Hut" }, "geometry": { "type": "Point", "coordinates": [ 137.9071, -30.12204, 0.0 ] } },
{ "type": "Feature", "properties": { "name": "Hut: Ewes Hut (approxl", "desc": "2022-2-28 8:22:20" }, "geometry": { "type": "Point", "coordinates": [ 146.407379, -42.713324, 0.0 ] } },
{ "type": "Feature", "properties": { "name": "Hut: Clark Huts (approx)", "desc": "2022-2-28 9:2:24" }, "geometry": { "type": "Point", "coordinates": [ 146.326535, -42.719609, 0.0 ] } },
{ "type": "Feature", "properties": { "name": "Hut: Haunted Stream shelter", "desc": "2022-4-4 20:5:46" }, "geometry": { "type": "Point", "coordinates": [ 147.760986, -37.451401, 0.0 ] } },
{ "type": "Feature", "properties": { "name": "Hut: The Dog House", "desc": "2022-5-1 12:3:24" }, "geometry": { "type": "Point", "coordinates": [ 146.114537, -38.025651, 111.252 ] } },
{ "type": "Feature", "properties": { "name": "Hut: Dogs Grave", "desc": "Nice campsite. Good hut & dunny." }, "geometry": { "type": "Point", "coordinates": [ 147.380477, -37.233973, 0.0 ] } }
]
}
